{"A":{"Alingsås":{"Alingsås":[{"id":"01841","name":"Maxi ICA Stormarknad Alingsås","city":"Alingsås","street":"Hemvägen 19","zipCode":"44139","area":"Alingsås","storeFormat":"maxi","marketingText":"Samma låga priser som i den fysiska butiken. Hämta smidigt i vår hämtstation!","latitude":57.924437,"longitude":12.544168,"deliveryMethods":["HOME_DELIVERY","PICKUP"],"customerTypes":["B2B","B2C"],"cityGroups":null,"customLogoURI":null}]},"Alnö":{"Alnö":[{"id":"00444","name":"ICA Supermarket Alnö","city":"Alnö","street":"Alnö Centrum, Raholmsvägen","zipCode":"86531","area":"Alnö","storeFormat":"supermarket","marketingText":"Vi ger dig snabb service, ett härligt sortiment och en smidig upphämtning.","latitude":62.428887,"longitude":17.417146,"deliveryMethods":["PICKUP"],"customerTypes":["B2B","B2C"],"cityGroups":null,"customLogoURI":null}]},"Arboga":{"Arboga":[{"id":"01025","name":"ICA Nära Vilstahallen","city":"Arboga","street":"Jädersvägen 3","zipCode":"73234","area":"Arboga","storeFormat":"nara","marketingText":"Handla när du vill och välj mellan hemleverans eller att hämta varorna i butik!","latitude":59.394008,"longitude":15.829931,"deliveryMethods":["HOME_DELIVERY","PICKUP"],"customerTypes":["B2B","B2C"],"cityGroups":null,"customLogoURI":null}]},"Arkelstorp":{"Arkelstorp":[{"id":"02533","name":"ICA Nära Arkelstorp","city":"Arkelstorp","street":"Allarpsvägen 11","area":"Arkelstorp","storeFormat":"nara","marketingText":"Storhandla från soffan och hämta upp dina varor enkelt och smidigt bakom butiken!","latitude":56.173,"longitude":14.283,"deliveryMethods":["PICKUP"],"customerTypes":["B2B","B2C"],"cityGroups":null,"customLogoURI":null}]},"Avesta":{"Avesta":[{"id":"13713","name":"ICA Kvantum Avesta","city":"Avesta","street":"Myntgatan 3-5","zipCode":"77430","area":"Avesta","storeFormat":"kvantum","marketingText":"Handla när du har tid! Hämta smidigt i butiken eller få dina varor hemlevererade.","latitude":60.145,"longitude":16.174,"deliveryMethods":["HOME_DELIVERY","PICKUP"],"customerTypes":["B2B","B2C"],"cityGroups":null,"customLogoURI":null}]}},"B":{"Bjuv":{"Bjuv":[{"id":"02870","name":"ICA Supermarket Bjuv","city":"Bjuv","street":"Södra Storgatan 22","zipCode":"26731","area":"Bjuv","storeFormat":"supermarket","marketingText":"Bekvämt och bra! Hämta dina varor i förbutiken eller få dem hemlevererade.","latitude":56.082479,"longitude":12.920823,"deliveryMethods":["HOME_DELIVERY","PICKUP"],"customerTypes":["B2B","B2C"],"cityGroups":null,"customLogoURI":null}]},"Borlänge":{"Borlänge":[{"id":"11509","name":"Maxi ICA Stormarknad Borlänge","city":"Borlänge","street":"Mjälgavägen 2","zipCode":"78437","area":"Borlänge","storeFormat":"maxi","marketingText":"Handla i lugn och ro – hämta smidigt i butiken eller få dina varor hemlevererade!","latitude":60.482635,"longitude":15.447746,"deliveryMethods":["HOME_DELIVERY","PICKUP"],"customerTypes":["B2B","B2C"],"cityGroups":null,"customLogoURI":null}]},"Borås":{"Borås":[{"id":"01942","name":"ICA Kvantum City Knalleland","city":"Borås","street":"Skaraborgsvägen 25","area":"Borås","storeFormat":"kvantum","marketingText":"Välkommen till Citys butik på nätet - boråsarnas matbutik online. Vi handplockar varje order.","latitude":57.729924,"longitude":12.939224,"deliveryMethods":["HOME_DELIVERY","PICKUP"],"customerTypes":["B2B","B2C"],"cityGroups":null,"customLogoURI":"local-image://city-knalleland"},{"id":"03988","name":"ICA Supermarket Knalleland","city":"Borås","street":"Bergslenagatan 7","zipCode":"50630","area":"Borås","storeFormat":"supermarket","marketingText":"Vi levererar dina fräscha och färska varor dagen efter du lagt beställningen.","latitude":57.732,"longitude":12.939,"deliveryMethods":["HOME_DELIVERY","PICKUP"],"customerTypes":["B2B","B2C"],"cityGroups":null,"customLogoURI":null},{"id":"12962","name":"Maxi ICA Stormarknad Borås","city":"Borås","street":"Trandögatan 16","zipCode":"50433","area":"BORÅS","storeFormat":"maxi","marketingText":"Vi plockar och packar alla vara med omsorg – hämta i butik eller välj hemleverans.","latitude":57.710627,"longitude":12.942174,"deliveryMethods":["HOME_DELIVERY","PICKUP"],"customerTypes":["B2B","B2C"],"cityGroups":null,"customLogoURI":null}]},"Boxholm":{"Boxholm":[{"id":"02111","name":"ICA Nära Boxholm","city":"Boxholm","street":"Centrumgatan 1","zipCode":"59010","area":"Boxholm","storeFormat":"nara","marketingText":"Slipp leta! Hämta dina färdigpackade varor direkt i butiken.","latitude":58.196809,"longitude":15.054563,"deliveryMethods":["HOME_DELIVERY","PICKUP"],"customerTypes":["B2B","B2C"],"cityGroups":null,"customLogoURI":null}]},"Brottby":{"Brottby":[{"id":"01437","name":"ICA Nära Brottbyhallen","city":"Brottby","street":"Karby Torg 7","zipCode":"18670","area":"Brottby","storeFormat":"nara","marketingText":"Hemleverans i kylbil måndag-söndag. Gratis upphämtning!","latitude":59.560514,"longitude":18.226798,"deliveryMethods":["HOME_DELIVERY","PICKUP"],"customerTypes":["B2B","B2C"],"cityGroups":["Storstockholm"],"customLogoURI":null}]},"Bålsta":{"Bålsta":[{"id":"00921","name":"ICA Kvantum Bålsta","city":"Bålsta","street":"Bålsta Centrum","area":"Bålsta","storeFormat":"kvantum","marketingText":"Här hittar du bland annat vårt stora ekologiska sortiment. Allt samlat på nätet.","latitude":59.567,"longitude":17.53,"deliveryMethods":["HOME_DELIVERY","PICKUP"],"customerTypes":["B2B","B2C"],"cityGroups":null,"customLogoURI":null}]},"Båstad":{"Båstad":[{"id":"03502","name":"ICA Supermarket Båstad","city":"Båstad","street":"Köpmansgatan 76B","zipCode":"26931","area":"BÅSTAD","storeFormat":"supermarket","marketingText":"Vi handplockar dina varor! Hämta upp dem i butiken eller få hemleverans. ","latitude":56.427,"longitude":12.849,"deliveryMethods":["HOME_DELIVERY","PICKUP"],"customerTypes":["B2B","B2C"],"cityGroups":null,"customLogoURI":null}]}},"E":{"Enköping":{"Enköping":[{"id":"10762","name":"Maxi ICA Stormarknad Enköping","city":"Enköping","street":"Vagnsgatan 3","zipCode":"74537","area":"Enköping","storeFormat":"maxi","marketingText":"Ett stort urval av färska och fräscha varor. Vi plockar och packar åt dig med omsorg.","latitude":59.652,"longitude":17.088,"deliveryMethods":["HOME_DELIVERY","PICKUP"],"customerTypes":["B2B","B2C"],"cityGroups":null,"customLogoURI":null}]},"Eskilstuna":{"Eskilstuna":[{"id":"00933","name":"ICA Kvantum Ekängen","city":"Eskilstuna","street":"Strängnäsvägen 11","zipCode":"63349","area":"Eskilstuna","storeFormat":"kvantum","marketingText":"Hemleverans alla vardagar. Vi plockar och packar dina varor med omsorg.","latitude":59.373132,"longitude":16.556772,"deliveryMethods":["HOME_DELIVERY","PICKUP"],"customerTypes":["B2B","B2C"],"cityGroups":null,"customLogoURI":null},{"id":"00941","name":"ICA Supermarket Stenby","city":"Eskilstuna","street":"Stenbygatan 2","zipCode":"63234","area":"ESKILSTUNA","storeFormat":"supermarket","marketingText":"Handla i lugn och ro! Välj mellan hemleverans eller att hämta varorna i butik.","latitude":59.356677,"longitude":16.475,"deliveryMethods":["HOME_DELIVERY","PICKUP"],"customerTypes":["B2B","B2C"],"cityGroups":null,"customLogoURI":null}]}},"F":{"Fagersta":{"Fagersta":[{"id":"01012","name":"ICA Supermarket Fontänen","city":"Fagersta","street":"Centralvägen 5","zipCode":"73723","area":"Fagersta","storeFormat":"supermarket","marketingText":"Veckans inköp när det passar dig! Välj hemleverans eller hämta varorna smidigt i butiken.","latitude":59.989442,"longitude":15.81472,"deliveryMethods":["HOME_DELIVERY","PICKUP"],"customerTypes":["B2B","B2C"],"cityGroups":null,"customLogoURI":null}]},"Falkenberg":{"Falkenberg":[{"id":"11358","name":"ICA Kvantum Falkenberg","city":"Falkenberg","street":"Sandgatan 34","zipCode":"31175","area":"FALKENBERG","storeFormat":"kvantum","marketingText":"Spara tid genom att handla hos oss på nätet. Beställ i lugn och ro när som helst på dygnet.","latitude":56.903401,"longitude":12.483949,"deliveryMethods":["HOME_DELIVERY","PICKUP"],"customerTypes":["B2B","B2C"],"cityGroups":null,"customLogoURI":null},{"id":"01842","name":"ICA Supermarket Skrea Strand","city":"Falkenberg","street":"Ljungholmsvägen 20","zipCode":"31146","area":"Falkenberg","storeFormat":"supermarket","marketingText":"Hämta dina varor i butiken eller få dem hemlevererade.","latitude":56.8866838,"longitude":12.5109729,"deliveryMethods":["HOME_DELIVERY","PICKUP"],"customerTypes":["B2B","B2C"],"cityGroups":null,"customLogoURI":null}]},"Falun":{"Falun":[{"id":"12310","name":"Maxi ICA Stormarknad Falun","city":"Falun","street":"Bataljonsvägen 11","zipCode":"79140","area":"Falun","storeFormat":"maxi","marketingText":"Ett stort urval av färska och fräscha varor. Vi plockar och packar åt dig med omsorg.","latitude":60.606649,"longitude":15.65756,"deliveryMethods":["HOME_DELIVERY","PICKUP"],"customerTypes":["B2B","B2C"],"cityGroups":null,"customLogoURI":null}]},"Filipstad":{"Filipstad":[{"id":"10891","name":"ICA Kvantum Filipstad","city":"Filipstad","street":"Konsul Lundströmsväg 1","zipCode":"68232","area":"Filipstad","storeFormat":"kvantum","marketingText":"Handla hela veckans mat online - hämta i vår smidiga drive-in!","latitude":59.713001,"longitude":14.156122,"deliveryMethods":["HOME_DELIVERY","PICKUP"],"customerTypes":["B2B","B2C"],"cityGroups":null,"customLogoURI":null}]},"Flen":{"Flen":[{"id":"01407","name":"ICA Kvantum Flen","city":"Flen","street":"N. Kungsgatan 8","zipCode":"64237","area":"Flen","storeFormat":"kvantum","marketingText":"Fri upphämtning i butik – fem dagar i veckan!","latitude":59.059,"longitude":16.591,"deliveryMethods":["PICKUP"],"customerTypes":["B2B","B2C"],"cityGroups":null,"customLogoURI":null}]},"Fornåsa":{"Fornåsa":[{"id":"02194","name":"ICA Nära Fornåsa","city":"Fornåsa","street":"Industrivägen 2","zipCode":"59033","area":"Fornåsa","storeFormat":"nara","marketingText":"Hämta i butik eller få dina varor med hemleverans. Allt du eller ditt företag behöver!","latitude":58.478205,"longitude":15.225775,"deliveryMethods":["HOME_DELIVERY","PICKUP"],"customerTypes":["B2B","B2C"],"cityGroups":null,"customLogoURI":null}]},"Forshaga":{"Forshaga":[{"id":"00837","name":"ICA Supermarket Forshaga","city":"Forshaga","street":"Storgatan 40","zipCode":"66730","area":"Forshaga","storeFormat":"supermarket","marketingText":"Handla enkelt när du vill. Alltid gratis att hämta upp varorna i butiken. ","latitude":59.532458,"longitude":13.480938,"deliveryMethods":["PICKUP"],"customerTypes":["B2B","B2C"],"cityGroups":null,"customLogoURI":null}]}},"G":{"Gislaved":{"Gislaved":[{"id":"02346","name":"ICA Kvantum Gislaved","city":"Gislaved","street":"Stinsgatan 2","zipCode":"33222","area":"Gislaved","storeFormat":"kvantum","marketingText":"Hämta smidigt varorna i vår drive thru - sex dagar i veckan!","latitude":57.303118,"longitude":13.54392,"deliveryMethods":["HOME_DELIVERY","PICKUP"],"customerTypes":["B2B","B2C"],"cityGroups":null,"customLogoURI":null}]},"Gnosjö":{"Gnosjö":[{"id":"02342","name":"ICA Supermarket Gnosjö","city":"Gnosjö","street":"Köpmansgatan 21","zipCode":"33530","area":"GNOSJÖ","storeFormat":"supermarket","marketingText":"Få hemleverans eller hämta i butik! Vi erbjuder fräscha och färska varor, plockade med omsorg.","latitude":57.356,"longitude":13.732,"deliveryMethods":["HOME_DELIVERY","PICKUP"],"customerTypes":["B2B","B2C"],"cityGroups":null,"customLogoURI":null}]},"Grums":{"Grums":[{"id":"00842","name":"ICA Supermarket Klingan","city":"Grums","street":"Sveagatan 89","zipCode":"66434","area":"Grums","storeFormat":"supermarket","marketingText":"Vi på Klingan hjälper dig göra din vardag lite enklare.","latitude":59.353,"longitude":13.111,"deliveryMethods":["HOME_DELIVERY","PICKUP"],"customerTypes":["B2B","B2C"],"cityGroups":null,"customLogoURI":null}]},"Gustavsberg":{"Gustavsberg":[{"id":"14819","name":"Maxi ICA Stormarknad Värmdö","city":"Gustavsberg","street":"Afrodites väg 6","zipCode":"13427","area":"Gustavsberg","storeFormat":"maxi","marketingText":"Handla från vårt stora sortiment med lokala leverantörer och eget bageri.","latitude":59.311951,"longitude":18.425446,"deliveryMethods":["PICKUP"],"customerTypes":["B2B","B2C"],"cityGroups":["Storstockholm"],"customLogoURI":null}]},"Gävle":{"Gävle":[{"id":"00761","name":"ICA Nära Plus","city":"Gävle","street":"Hövdingavägen 2","zipCode":"80432","area":"GÄVLE","storeFormat":"nara","marketingText":"Hämta dina varor snabbt och enkelt i vår drive-in!","latitude":60.665637,"longitude":17.227003,"deliveryMethods":["HOME_DELIVERY","PICKUP"],"customerTypes":["B2B","B2C"],"cityGroups":null,"customLogoURI":null},{"id":"10800","name":"Maxi ICA Stormarknad Gävle","city":"Gävle","street":"Ingenjörsgatan 1","zipCode":"80293","area":"Gävle","storeFormat":"maxi","marketingText":"Ett stort urval av färska och fräscha varor. Vi plockar och packar åt dig med omsorg.","latitude":60.646679,"longitude":17.147345,"deliveryMethods":["HOME_DELIVERY","PICKUP"],"customerTypes":["B2B","B2C"],"cityGroups":null,"customLogoURI":null}]},"Göteborg":{"Göteborg":[{"id":"01735","name":"ICA Kvantum Focus","city":"Göteborg","street":"Åvägen 42","zipCode":"41251","area":"Göteborg","storeFormat":"kvantum","marketingText":"Stort och välfyllt sortiment till samma priser som i den fysiska butiken.","latitude":57.698289,"longitude":11.993228,"deliveryMethods":["HOME_DELIVERY","PICKUP"],"customerTypes":["B2B","B2C"],"cityGroups":null,"customLogoURI":null},{"id":"01712","name":"ICA Nära Toppen Göteborg","city":"Göteborg","street":"Kungsladugårdsgatan 104","zipCode":"41476","area":"Göteborg","storeFormat":"nara","marketingText":"Handla när det passar dig och hämta enkelt och smidigt dina färdigpackade kassar.","latitude":57.679958,"longitude":11.931697,"deliveryMethods":["HOME_DELIVERY","PICKUP"],"customerTypes":["B2B","B2C"],"cityGroups":null,"customLogoURI":null}]}},"H":{"Halmstad":{"Halmstad":[{"id":"02309","name":"ICA Supermarket Söndrum","city":"Halmstad","street":"Jutaplatsen 3","zipCode":"30292","area":"Halmstad","storeFormat":"supermarket","marketingText":"Alltid samma pris som i den fysiska butiken!","latitude":56.660459,"longitude":12.804768,"deliveryMethods":["HOME_DELIVERY","PICKUP"],"customerTypes":["B2B","B2C"],"cityGroups":null,"customLogoURI":null},{"id":"02311","name":"ICA Supermarket Vallås","city":"Halmstad","street":"Vallås Centrum","zipCode":"30258","area":"Halmstad","storeFormat":"supermarket","marketingText":"Handplockade varor för hemleverans eller gratis upphämtning. Ett enklare sätt att handla!","latitude":56.676888,"longitude":12.909668,"deliveryMethods":["HOME_DELIVERY","PICKUP"],"customerTypes":["B2B","B2C"],"cityGroups":null,"customLogoURI":null},{"id":"11066","name":"Maxi ICA Stormarknad Flygstaden","city":"Halmstad","street":"Karlsrovägen 81","zipCode":"30241","area":"Halmstad","storeFormat":"maxi","marketingText":"Stort sortiment och hög kvalitet. Hämta enkelt i vår Drive Thru eller få dina varor hemkörda.","latitude":56.67947,"longitude":12.806153,"deliveryMethods":["HOME_DELIVERY","PICKUP"],"customerTypes":["B2B","B2C"],"cityGroups":null,"customLogoURI":null}]},"Hammenhög":{"Hammenhög":[{"id":"02662","name":"ICA Supermarket Hammenhög","city":"Hammenhög","street":"Simrishamnsvägen 7","zipCode":"27650","area":"Hammenhög","storeFormat":"supermarket","marketingText":"Alltid gratis att hämta i butik. Handla smart och enkelt - vi packar varorna åt dig.","latitude":55.503468,"longitude":14.153451,"deliveryMethods":["PICKUP"],"customerTypes":["B2B","B2C"],"cityGroups":null,"customLogoURI":null}]},"Haninge":{"Haninge":[{"id":"09563","name":"Maxi ICA Stormarknad Haninge","city":"Haninge","street":"Österport 4","zipCode":"13647","area":"Söderby","storeFormat":"maxi","marketingText":"Alltid gratis att hämta i butik och fri hemleverans vid köp över 1500 kr!","latitude":59.181258,"longitude":18.158273,"deliveryMethods":["HOME_DELIVERY","PICKUP"],"customerTypes":["B2B","B2C"],"cityGroups":["Storstockholm"],"customLogoURI":null}]},"Helsingborg":{"Helsingborg":[{"id":"09700","name":"Maxi ICA Stormarknad Helsingborg","city":"Helsingborg","street":"Regementsvägen 7","zipCode":"25007","area":"HELSINGBORG","storeFormat":"maxi","marketingText":"Spara tid genom att handla hos oss på nätet. Beställ i lugn och ro när som helst på dygnet.","latitude":56.065397,"longitude":12.71968,"deliveryMethods":["HOME_DELIVERY"],"customerTypes":["B2B","B2C"],"cityGroups":null,"customLogoURI":null},{"id":"12880","name":"Maxi ICA Stormarknad Råå","city":"Helsingborg","street":"Landskronavägen 33","zipCode":"25232","area":"HELSINGBORG","storeFormat":"maxi","marketingText":"Slipp långa köer - storhandla hemifrån i lugn och ro.","latitude":56.002,"longitude":12.746,"deliveryMethods":["HOME_DELIVERY","PICKUP"],"customerTypes":["B2B","B2C"],"cityGroups":null,"customLogoURI":null}]},"Hishult":{"Hishult":[{"id":"03574","name":"ICA Nära Hishult","city":"Hishult","street":"Getaryggarna 1","area":"HISHULT","storeFormat":"nara","marketingText":"Alltid gratis att hämta dina varor i butiken. Spara tid genom att handla mat hos oss på nätet.","latitude":56.428372,"longitude":13.307758,"deliveryMethods":["HOME_DELIVERY","PICKUP"],"customerTypes":["B2B","B2C"],"cityGroups":null,"customLogoURI":null}]},"Hudiksvall":{"Hudiksvall":[{"id":"00394","name":"Maxi ICA Stormarknad Hudiksvall","city":"Hudiksvall","street":"Blockvägen 1","zipCode":"82434","area":"HUDIKSVALL","storeFormat":"maxi","marketingText":"Spara tid genom att handla hos oss på nätet. Alltid gratis att hämta i butik! ","latitude":61.742817,"longitude":17.116376,"deliveryMethods":["HOME_DELIVERY","PICKUP"],"customerTypes":["B2B","B2C"],"cityGroups":null,"customLogoURI":null}]},"Hässleholm":{"Hässleholm":[{"id":"03549","name":"Maxi ICA Stormarknad Hässleholm","city":"Hässleholm","street":"Norra Industrigatan 1","zipCode":"28141","area":"Hässleholm","storeFormat":"maxi","marketingText":"Ett stort urval av färska och fräscha varor som vi plockar åt dig. Välkommen!","latitude":56.164172,"longitude":13.780756,"deliveryMethods":["HOME_DELIVERY","PICKUP"],"customerTypes":["B2B","B2C"],"cityGroups":null,"customLogoURI":null}]},"Hönö":{"Hönö":[{"id":"01621","name":"ICA Supermarket Hönö","city":"Hönö","street":"Lökholmsvägen 2","zipCode":"47541","area":"Hönö","storeFormat":"supermarket","marketingText":"Hämta i butik eller få varorna hemlevererade. Personlig service och handplockade varor.","latitude":57.696294,"longitude":11.643707,"deliveryMethods":["HOME_DELIVERY","PICKUP"],"customerTypes":["B2B","B2C"],"cityGroups":null,"customLogoURI":null}]},"Hörby":{"Hörby":[{"id":"02712","name":"ICA Kvantum Hörby","city":"Hörby","street":"Ringsjövägen 7","zipCode":"24231","area":"Hörby","storeFormat":"kvantum","marketingText":"Handla när du vill, vår nätbutik är alltid öppen!","latitude":55.849177,"longitude":13.647478,"deliveryMethods":["HOME_DELIVERY","PICKUP"],"customerTypes":["B2B","B2C"],"cityGroups":null,"customLogoURI":null}]},"Höör":{"Höör":[{"id":"09562","name":"ICA Supermarket Höör","city":"Höör","street":"Friluftsvägen 14","zipCode":"24330","area":"Höör","storeFormat":"supermarket","marketingText":"Hemleverans alla vardagar. Eller hämta smidigt i vår nybyggda varutulämning på framsidan.","latitude":55.938481,"longitude":13.549334,"deliveryMethods":["HOME_DELIVERY","PICKUP"],"customerTypes":["B2B","B2C"],"cityGroups":null,"customLogoURI":null}]}},"J":{"Jönköping":{"Jönköping":[{"id":"02370","name":"ICA Nära Hovslätt","city":"Jönköping","street":"Hammarvägen 140A","zipCode":"55628","area":"Jönköping","storeFormat":"nara","marketingText":"Välkommen till Jönköpings lilla mathall - online sedan 2009.","latitude":57.72764,"longitude":14.115352,"deliveryMethods":["HOME_DELIVERY","PICKUP"],"customerTypes":["B2B","B2C"],"cityGroups":null,"customLogoURI":null},{"id":"02361","name":"ICA Supermarket Bankeryd","city":"Jönköping","street":"Sjöåkravägen 10","zipCode":"56431","area":"BANKERYD","storeFormat":"supermarket","marketingText":"Hemleverans eller hämta i butik – fem dagar i veckan!","latitude":57.861367,"longitude":14.125925,"deliveryMethods":["HOME_DELIVERY","PICKUP"],"customerTypes":["B2B","B2C"],"cityGroups":null,"customLogoURI":null}]}},"K":{"Kalmar":{"Kalmar":[{"id":"02597","name":"Maxi ICA Stormarknad Kalmar","city":"Kalmar","street":"Verkstadsgatan 6","zipCode":"39239","area":"Kalmar","storeFormat":"maxi","marketingText":"Vi plockar och packar dina varor med omsorg. Stort utbud färska och fräscha varor.","latitude":56.670203,"longitude":16.338422,"deliveryMethods":["HOME_DELIVERY","PICKUP"],"customerTypes":["B2B","B2C"],"cityGroups":null,"customLogoURI":null}]},"Karlskoga":{"Karlskoga":[{"id":"03565","name":"Maxi ICA Stormarknad Karlskoga","city":"Karlskoga","street":"Gesällgatan 5","zipCode":"69134","area":"Karlskoga","storeFormat":"maxi","marketingText":"Handla enkelt & bekvämt. Vi har öppet dygnet runt.","latitude":59.328245,"longitude":14.50764,"deliveryMethods":["HOME_DELIVERY","PICKUP"],"customerTypes":["B2B","B2C"],"cityGroups":null,"customLogoURI":null}]},"Karlskrona":{"Karlskrona":[{"id":"08917","name":"Maxi ICA Stormarknad Karlskrona","city":"Karlskrona","street":"Verkövägen 5","zipCode":"37162","area":"Lyckeby","storeFormat":"maxi","marketingText":"Handla maten när det passar just dig - vi har öppet dygnet runt!","latitude":56.197114,"longitude":15.640653,"deliveryMethods":["HOME_DELIVERY","PICKUP"],"customerTypes":["B2B","B2C"],"cityGroups":null,"customLogoURI":null}]},"Karlstad":{"Karlstad":[{"id":"00868","name":"ICA Nära Kärnan","city":"Karlstad","street":"Petersbergsgatan 25","zipCode":"65344","area":"Karlstad","storeFormat":"nara","marketingText":"Välj bland över 8000 varor i vår butik på nätet. Fri hemkörning när du handlar för över 600 kr.","latitude":59.385,"longitude":13.464,"deliveryMethods":["HOME_DELIVERY","PICKUP"],"customerTypes":["B2B","B2C"],"cityGroups":null,"customLogoURI":null},{"id":"00877","name":"ICA Supermarket Skåre","city":"Karlstad","street":"Centrumvägen 2","zipCode":"65008","area":"Karlstad","storeFormat":"supermarket","marketingText":"Handla bland över 10 000 artiklar. Alltid gratis upphämtning i butik.","latitude":59.434809,"longitude":13.44022,"deliveryMethods":["HOME_DELIVERY","PICKUP"],"customerTypes":["B2B","B2C"],"cityGroups":null,"customLogoURI":null},{"id":"10519","name":"ICA Supermarket Spara Våxnäs","city":"Karlstad","street":"Ramgatan 3","zipCode":"65341","area":"KARLSTAD","storeFormat":"supermarket","marketingText":"Det är jämt görsmidigt att handla från oss!","latitude":59.386,"longitude":13.48,"deliveryMethods":["HOME_DELIVERY","PICKUP"],"customerTypes":["B2B","B2C"],"cityGroups":null,"customLogoURI":null},{"id":"11010","name":"Maxi ICA Stormarknad Karlstad","city":"Karlstad","street":"Frykmans väg  3","zipCode":"65346","area":"Karlstad","storeFormat":"maxi","marketingText":"Handla till samma låga priser som i butiken, i Karlstads största nätbutik!","latitude":59.375902,"longitude":13.42845,"deliveryMethods":["HOME_DELIVERY","PICKUP"],"customerTypes":["B2B","B2C"],"cityGroups":null,"customLogoURI":null}]},"Katrineholm":{"Katrineholm":[{"id":"12985","name":"ICA Nära Katrineholm","city":"Katrineholm","street":"Linnévägen 30","zipCode":"64132","area":"KATRINEHOLM","storeFormat":"nara","marketingText":"Välj bland över 9000 varor. Samma pris som i butik och fri hemleverans över 1000kr.","latitude":58.990488,"longitude":16.211228,"deliveryMethods":["HOME_DELIVERY","PICKUP"],"customerTypes":["B2B","B2C"],"cityGroups":null,"customLogoURI":null},{"id":"10735","name":"Maxi ICA Stormarknad Katrineholm","city":"Katrineholm","street":"Starrvägen 17","zipCode":"64149","area":"Katrineholm","storeFormat":"maxi","marketingText":"Vi är glada att kunna erbjuda våra kunder matglädje även på nätet. Välkommen in!","latitude":59.002963,"longitude":16.22548,"deliveryMethods":["HOME_DELIVERY","PICKUP"],"customerTypes":["B2B","B2C"],"cityGroups":null,"customLogoURI":null}]},"Kil":{"Kil":[{"id":"00806","name":"ICA Supermarket Kil","city":"Kil","street":"Storgatan 28","zipCode":"66530","area":"Kil","storeFormat":"supermarket","marketingText":"Stort utbud av kvalitetsvaror - hos oss får du lite mer!","latitude":59.503786,"longitude":13.314367,"deliveryMethods":["PICKUP"],"customerTypes":["B2B","B2C"],"cityGroups":null,"customLogoURI":null}]},"Klippan":{"Klippan":[{"id":"02830","name":"ICA Kvantum Klippan","city":"Klippan","street":"Ladugårdsvägen","zipCode":"26436","area":"Klippan","storeFormat":"kvantum","marketingText":"Vi plockar dina varor med omsorg - hämta dem smidigt i vår drive-through!","latitude":56.134,"longitude":13.157,"deliveryMethods":["PICKUP"],"customerTypes":["B2B","B2C"],"cityGroups":null,"customLogoURI":null}]},"Kristianstad":{"Kristianstad":[{"id":"11638","name":"ICA Kvantum Kristianstad","city":"Kristianstad","street":"Stridsvagnsvägen","zipCode":"29139","area":"Kristianstad","storeFormat":"kvantum","marketingText":"Vi bär ut varorna till dig, du behöver inte ens gå ur bilen!","latitude":56.043789,"longitude":14.148637,"deliveryMethods":["HOME_DELIVERY","PICKUP"],"customerTypes":["B2B","B2C"],"cityGroups":null,"customLogoURI":null},{"id":"02513","name":"Maxi ICA Stormarknad Kristianstad","city":"Kristianstad","street":"Sjöcronas gata 7","zipCode":"29153","area":"KRISTIANSTAD","storeFormat":"maxi","marketingText":"Handla online till samma pris som i butiken - i Kristianstads största nätbutik!","latitude":56.025741,"longitude":14.168455,"deliveryMethods":["HOME_DELIVERY","PICKUP"],"customerTypes":["B2B","B2C"],"cityGroups":null,"customLogoURI":null}]},"Kristinehamn":{"Kristinehamn":[{"id":"00882","name":"Maxi ICA Stormarknad Kristinehamn","city":"Kristinehamn","street":"Närkevägen 28","zipCode":"68143","area":"Kristinehamn","storeFormat":"maxi","marketingText":"Handla enkelt och bekvämt. Alltid gratis upphämtning av dina varor i butik.","latitude":59.312,"longitude":14.129,"deliveryMethods":["HOME_DELIVERY","PICKUP"],"customerTypes":["B2B","B2C"],"cityGroups":null,"customLogoURI":null}]},"Kumla":{"Kumla":[{"id":"01099","name":"ICA Nära Profilen","city":"Kumla","street":"Skolvägen 12","zipCode":"69234","area":"KUMLA","storeFormat":"nara","marketingText":"Alltid gratis hemleverans när du handlar för minst 600 kr.","latitude":59.1266,"longitude":15.136265,"deliveryMethods":["HOME_DELIVERY","PICKUP"],"customerTypes":["B2B","B2C"],"cityGroups":null,"customLogoURI":null}]},"Kungsbacka":{"Kungsbacka":[{"id":"12952","name":"Maxi ICA Stormarknad Kungsbacka","city":"Kungsbacka","street":"Hedebrovägen 50","zipCode":"43439","area":"Kungsbacka","storeFormat":"maxi","marketingText":"Slipp köer och låt oss plocka dina varor - välj hemleverans eller hämta i butik!","latitude":57.516221,"longitude":12.075003,"deliveryMethods":["HOME_DELIVERY","PICKUP"],"customerTypes":["B2B","B2C"],"cityGroups":null,"customLogoURI":null}]},"Kungälv":{"Kungälv":[{"id":"01769","name":"Maxi ICA Stormarknad Kungälv","city":"Kungälv","street":"Gymnasiegatan 8","zipCode":"44234","area":"Kungälv","storeFormat":"maxi","marketingText":"Storhandla online - Välj mellan hemleverans eller kostnadsfri upphämtning i butiken.","latitude":57.874427,"longitude":11.973599,"deliveryMethods":["HOME_DELIVERY","PICKUP"],"customerTypes":["B2B","B2C"],"cityGroups":null,"customLogoURI":null}]},"Köping":{"Köping":[{"id":"01014","name":"Maxi ICA Stormarknad Köping","city":"Köping","street":"Ringvägen 76","zipCode":"73133","area":"Köping","storeFormat":"maxi","marketingText":"Handla från ett brett och fräscht sortiment - när helst du vill på dygnet.","latitude":59.522819,"longitude":15.974263,"deliveryMethods":["HOME_DELIVERY","PICKUP"],"customerTypes":["B2B","B2C"],"cityGroups":null,"customLogoURI":null}]}},"L":{"Landskrona":{"Landskrona":[{"id":"09808","name":"ICA Kvantum Landskrona","city":"Landskrona","street":"Östervångsplan 10","zipCode":"26144","area":"Landskrona","storeFormat":"kvantum","marketingText":"Här väljer vi alltid ut dina färskvaror med omsorg.","latitude":55.879205,"longitude":12.855822,"deliveryMethods":["HOME_DELIVERY","PICKUP"],"customerTypes":["B2C"],"cityGroups":null,"customLogoURI":null}]},"Laxå":{"Laxå":[{"id":"01038","name":"ICA Supermarket Laxå","city":"Laxå","street":"Röforsvägen 18","zipCode":"69530","area":"Laxå","storeFormat":"supermarket","marketingText":"Handla veckans mat när det passar dig! Välj hemleverans eller gratis upphämtning.","latitude":58.985307,"longitude":14.619938,"deliveryMethods":["HOME_DELIVERY","PICKUP"],"customerTypes":["B2B","B2C"],"cityGroups":null,"customLogoURI":null}]},"Lerum":{"Lerum":[{"id":"01811","name":"ICA Kvantum Lerum","city":"Lerum","street":"Hulans Torg","zipCode":"44351","area":"Lerum","storeFormat":"kvantum","marketingText":"Lerums saluhall på nätet! Hämta smidigt varorna i vår drive-in eller få dem hemlevererade.","latitude":57.750579,"longitude":12.245627,"deliveryMethods":["HOME_DELIVERY","PICKUP"],"customerTypes":["B2B","B2C"],"cityGroups":null,"customLogoURI":null},{"id":"01813","name":"ICA Supermarket Servett Lerum","city":"Lerum","street":"Almekärrsvägen 1","zipCode":"43339","area":"Lerum","storeFormat":"supermarket","marketingText":"Noggrant utvalda råvaror, personlig service och närproducerade varor.","latitude":57.762349,"longitude":12.262903,"deliveryMethods":["PICKUP"],"customerTypes":["B2B","B2C"],"cityGroups":null,"customLogoURI":null}]},"Lidköping":{"Lidköping":[{"id":"02044","name":"ICA Kvantum Hjertberg","city":"Lidköping","street":"Framnäsvägen 1","zipCode":"53154","area":"LIDKÖPING","storeFormat":"kvantum","marketingText":"Spara tid genom att handla hos oss på nätet. Beställ i lugn och ro när som helst på dygnet.","latitude":58.508151,"longitude":13.146493,"deliveryMethods":["HOME_DELIVERY","PICKUP"],"customerTypes":["B2B","B2C"],"cityGroups":null,"customLogoURI":null}]},"Linköping":{"Linköping":[{"id":"02151","name":"ICA Supermarket Berga Centrum Linköping","city":"Linköping","street":"Söderleden 33","zipCode":"58008","area":"Linköping","storeFormat":"supermarket","marketingText":"Hemleverans alla vardagar och alltid gratis att hämta varorna i butik.","latitude":58.392435,"longitude":15.643447,"deliveryMethods":["HOME_DELIVERY","PICKUP"],"customerTypes":["B2B","B2C"],"cityGroups":null,"customLogoURI":null},{"id":"08900","name":"Maxi ICA Stormarknad Linköping","city":"Linköping","street":"Västra Svedengatan 12","zipCode":"58273","area":"Linköping","storeFormat":"maxi","marketingText":"Färskt bröd, kött, pasta och mycket mer. Välj mellan hemleverans eller hämta i butik.","latitude":58.432104,"longitude":15.591569,"deliveryMethods":["HOME_DELIVERY","PICKUP"],"customerTypes":["B2B","B2C"],"cityGroups":null,"customLogoURI":null}]},"Ljungby":{"Ljungby":[{"id":"03511","name":"Maxi ICA Stormarknad Ljungby","city":"Ljungby","street":"Drottninggatan 34","zipCode":"34136","area":"Ljungby","storeFormat":"maxi","marketingText":"Välj ur ett brett och fräscht sortiment. Vi plockar och packar omsorgsfullt dina varor!","latitude":56.834804,"longitude":13.944592,"deliveryMethods":["HOME_DELIVERY","PICKUP"],"customerTypes":["B2B","B2C"],"cityGroups":null,"customLogoURI":null}]},"Luleå":{"Luleå":[{"id":"09586","name":"ICA Nära Sörbyhallen","city":"Luleå","street":"Knalltorpsvägen 1","zipCode":"97593","area":"LULEÅ","storeFormat":"nara","marketingText":"Handla snabbt, smart och enkelt - alltid gratis att hämta upp varorna i butiken!","latitude":65.557266,"longitude":21.82537,"deliveryMethods":["PICKUP"],"customerTypes":["B2C"],"cityGroups":null,"customLogoURI":null},{"id":"11650","name":"Maxi ICA Stormarknad Luleå","city":"Luleå","street":"Storhedsvägen 14","zipCode":"97345","area":"Luleå","storeFormat":"maxi","marketingText":"Förenkla din vardag – handla online! Hemleverans eller fri upphämtning i butiken. Välkommen!","latitude":65.617627,"longitude":22.048552,"deliveryMethods":["HOME_DELIVERY","PICKUP"],"customerTypes":["B2B","B2C"],"cityGroups":null,"customLogoURI":null}]},"Lund":{"Lund":[{"id":"02771","name":"ICA Kvantum Malmborgs Clemenstorget","city":"Lund","street":"Clemenstorget 5A","zipCode":"22221","area":"Lund","storeFormat":"kvantum","marketingText":"Din välfyllda saluhall på nätet - Hämta i butik eller få varorna hemlevererade!","latitude":55.706639,"longitude":13.187959,"deliveryMethods":["HOME_DELIVERY","PICKUP"],"customerTypes":["B2B","B2C"],"cityGroups":null,"customLogoURI":null},{"id":"09262","name":"ICA Kvantum Mobilia Lund","city":"Lund","street":"Traktorvägen 1-3","zipCode":"22721","area":"Lund","storeFormat":"kvantum","marketingText":"Alltid gratis upphämtning i vår smidiga Drive thru och StopBy.","latitude":55.716565,"longitude":13.164047,"deliveryMethods":["HOME_DELIVERY","PICKUP"],"customerTypes":["B2B","B2C"],"cityGroups":null,"customLogoURI":null}]},"Lycksele":{"Lycksele":[{"id":"13356","name":"ICA Supermarket Lycksele","city":"Lycksele","street":"Hamngatan 11","zipCode":"92131","area":"LYCKSELE","storeFormat":"supermarket","marketingText":"Mycket att göra? Låt oss plocka och packa dina varor - leverans fem dagar i veckan.","latitude":64.595262,"longitude":18.680001,"deliveryMethods":["HOME_DELIVERY","PICKUP"],"customerTypes":["B2B","B2C"],"cityGroups":null,"customLogoURI":null}]},"Lysekil":{"Lysekil":[{"id":"01776","name":"ICA Supermarket Lysekil","city":"Lysekil","street":"Landsvägsgatan 17","zipCode":"45335","area":"Lysekil","storeFormat":"supermarket","marketingText":"Hämta i butiken eller få dina varor levererade till dörren.","latitude":58.276523,"longitude":11.440316,"deliveryMethods":["HOME_DELIVERY","PICKUP"],"customerTypes":["B2B","B2C"],"cityGroups":null,"customLogoURI":null}]},"Löddeköpinge":{"Löddeköpinge":[{"id":"10521","name":"Maxi ICA Stormarknad Löddeköpinge","city":"Löddeköpinge","street":"Marknadsvägen, Center Syd","zipCode":"24642","area":"Löddeköpinge","storeFormat":"maxi","marketingText":"Vi handplockar alla dina varor i butiken, med extra stor omsorg för frukt & grönt.","latitude":55.769318,"longitude":12.990291,"deliveryMethods":["HOME_DELIVERY","PICKUP"],"customerTypes":["B2B","B2C"],"cityGroups":null,"customLogoURI":null}]}},"M":{"Malmö":{"Malmö":[{"id":"02720","name":"ICA Kvantum Malmborgs Caroli","city":"Malmö","street":"Stora Kvarngatan 59","zipCode":"20011","area":"MALMÖ","storeFormat":"kvantum","marketingText":"Vi plockar och packar dina varor med omsorg och levererar dem sedan till din dörr!","latitude":55.606215,"longitude":13.008091,"deliveryMethods":["HOME_DELIVERY","PICKUP"],"customerTypes":["B2B","B2C"],"cityGroups":null,"customLogoURI":null},{"id":"02748","name":"Maxi ICA Stormarknad Malmö","city":"Malmö","street":"Cypressvägen 4","zipCode":"21363","area":"Malmö","storeFormat":"maxi","marketingText":"Alltid gratis att hämta dina varor i butiken, sju dagar i veckan!","latitude":55.571704,"longitude":13.040782,"deliveryMethods":["HOME_DELIVERY","PICKUP"],"customerTypes":["B2B","B2C"],"cityGroups":null,"customLogoURI":null}]},"Malung":{"Malung":[{"id":"00589","name":"ICA Supermarket Malung","city":"Malung","street":"Grönlandsvägen 30","zipCode":"78231","area":"Malung","storeFormat":"supermarket","marketingText":"Välj bland ett stort utbud av kvalitetsvaror. Alltid gratis att hämta i butik!","latitude":60.684,"longitude":13.712,"deliveryMethods":["HOME_DELIVERY","PICKUP"],"customerTypes":["B2B","B2C"],"cityGroups":null,"customLogoURI":null}]},"Mora":{"Mora":[{"id":"13019","name":"Maxi ICA Stormarknad Mora","city":"Mora","street":"Siljanssågsvägen 15","zipCode":"79250","area":"Mora","storeFormat":"maxi","marketingText":"Klicka hem veckans middagar på några minuter - vi handplockar din beställning!","latitude":61.006069,"longitude":14.595991,"deliveryMethods":["HOME_DELIVERY","PICKUP"],"customerTypes":["B2B","B2C"],"cityGroups":null,"customLogoURI":null}]},"Motala":{"Motala":[{"id":"03550","name":"Maxi ICA Stormarknad Motala","city":"Motala","street":"Hökartorget Bråstorp","zipCode":"59153","area":"Motala","storeFormat":"maxi","marketingText":"Handla online och låt oss plocka, packa och leverera dina varor. Bekvämare blir det inte!","latitude":58.557366,"longitude":15.034628,"deliveryMethods":["HOME_DELIVERY","PICKUP"],"customerTypes":["B2B","B2C"],"cityGroups":null,"customLogoURI":null}]},"Myggenäs":{"Myggenäs":[{"id":"01632","name":"ICA Supermarket Almö Livs","city":"Myggenäs","street":"Centrumhuset 1","zipCode":"47160","area":"Myggenäs","storeFormat":"supermarket","marketingText":"Fri upphämtning fem dagar i veckan!","latitude":58.0623,"longitude":11.75176,"deliveryMethods":["PICKUP"],"customerTypes":["B2B","B2C"],"cityGroups":null,"customLogoURI":null}]}},"N":{"Norrköping":{"Norrköping":[{"id":"02168","name":"ICA Supermarket Eneby","city":"Norrköping","street":"Slåttergatan 80","zipCode":"60212","area":"Norrköping","storeFormat":"supermarket","marketingText":"Vi erbjuder matglädje på nätet dygnet runt, alla dagar i veckan.","latitude":58.604,"longitude":16.144,"deliveryMethods":["HOME_DELIVERY","PICKUP"],"customerTypes":["B2B","B2C"],"cityGroups":null,"customLogoURI":null},{"id":"02173","name":"ICA Supermarket Smedby, Norrköping","city":"Norrköping","street":"Bigatan 101","zipCode":"60361","area":"Norrköping","storeFormat":"supermarket","marketingText":"Vi gör allt för att du som kund ska bli nöjd!","latitude":58.570723,"longitude":16.22946,"deliveryMethods":["HOME_DELIVERY","PICKUP"],"customerTypes":["B2B","B2C"],"cityGroups":null,"customLogoURI":null},{"id":"08927","name":"Maxi ICA Stormarknad Norrköping","city":"Norrköping","street":"Koppargatan 20","zipCode":"60223","area":"Norrköping","storeFormat":"maxi","marketingText":"Handla från ett brett sortiment, med fokus på närproducerade varor från Östergötland.","latitude":58.618563,"longitude":16.155026,"deliveryMethods":["HOME_DELIVERY","PICKUP"],"customerTypes":["B2B","B2C"],"cityGroups":null,"customLogoURI":null}]},"Norrtälje":{"Norrtälje":[{"id":"01447","name":"ICA Kvantum Flygfyren","city":"Norrtälje","street":"Gustaf Adolfs väg 55","zipCode":"76123","area":"Norrtälje","storeFormat":"kvantum","marketingText":"Samma pris som i butik och stort utbud av egenproducerade varor. Hemleverans alla dagar.","latitude":59.752457,"longitude":18.694342,"deliveryMethods":["HOME_DELIVERY","PICKUP"],"customerTypes":["B2B","B2C"],"cityGroups":["Storstockholm"],"customLogoURI":"local-image://flygfyren"},{"id":"01441","name":"ICA Supermarket Norrköp","city":"Norrtälje","street":"Noorsgatan 1","zipCode":"76161","area":"Norrtälje","storeFormat":"supermarket","marketingText":"Hämta upp dina varor i vår Drive thru eller få dem hemlevererade.","latitude":59.766582,"longitude":18.713501,"deliveryMethods":["HOME_DELIVERY","PICKUP"],"customerTypes":["B2B","B2C"],"cityGroups":["Storstockholm"],"customLogoURI":null}]},"Norsborg":{"Norsborg":[{"id":"09411","name":"Maxi ICA Stormarknad Botkyrka","city":"Norsborg","street":"Kumla Gårdsväg 30","zipCode":"14563","area":"Botkyrka","storeFormat":"maxi","marketingText":"Alltid gratis att hämta dina varor i butiken - hämta smart och smidigt i vår hämtstation.","latitude":59.237023,"longitude":17.83193,"deliveryMethods":["HOME_DELIVERY","PICKUP"],"customerTypes":["B2B","B2C"],"cityGroups":["Storstockholm"],"customLogoURI":null}]},"Nyköping":{"Nyköping":[{"id":"09718","name":"Maxi ICA Stormarknad Nyköping","city":"Nyköping","street":"Gustafsbergsstigen 6","zipCode":"61167","area":"Nyköping","storeFormat":"maxi","marketingText":"Handla dygnet runt med fri upphämtning i butik!","latitude":58.770577,"longitude":17.022565,"deliveryMethods":["HOME_DELIVERY","PICKUP"],"customerTypes":["B2B","B2C"],"cityGroups":null,"customLogoURI":null}]}},"O":{"Osby":{"Osby":[{"id":"02509","name":"ICA Supermarket Osby","city":"Osby","street":"Västra Järnvägsgatan 21","zipCode":"28331","area":"Osby","storeFormat":"supermarket","marketingText":"Hemleverans alla vardagar och ett brett sortiment. Förenkla för både vardag och fest.","latitude":56.380798,"longitude":13.993943,"deliveryMethods":["HOME_DELIVERY","PICKUP"],"customerTypes":["B2B","B2C"],"cityGroups":null,"customLogoURI":null}]},"Oskarshamn":{"Oskarshamn":[{"id":"09263","name":"Maxi ICA Stormarknad Oskarshamn","city":"Oskarshamn","street":"Döderhultsvägen 26","zipCode":"57231","area":"Oskarshamn","storeFormat":"maxi","marketingText":"Handla när du vill – vi har alltid öppet!","latitude":57.265648,"longitude":16.433253,"deliveryMethods":["HOME_DELIVERY","PICKUP"],"customerTypes":["B2B","B2C"],"cityGroups":null,"customLogoURI":null}]}},"P":{"Perstorp":{"Perstorp":[{"id":"02829","name":"ICA Supermarket Perstorp","city":"Perstorp","street":"Stockholmsvägen 7-9","zipCode":"28431","area":"Perstorp","storeFormat":"supermarket","marketingText":"Stort och välfyllt sortiment samt eget kök med mat för både vardag och fest.","latitude":56.139,"longitude":13.394,"deliveryMethods":["PICKUP"],"customerTypes":["B2B","B2C"],"cityGroups":null,"customLogoURI":null}]},"Piteå":{"Piteå":[{"id":"11947","name":"ICA Kvantum Piteå","city":"Piteå","street":"Hamnplan 7","zipCode":"94122","area":"PITEÅ","storeFormat":"kvantum","marketingText":"Spara tid genom att handla hos oss på nätet. Beställ i lugn och ro när som helst på dygnet.","latitude":65.314,"longitude":21.481,"deliveryMethods":["HOME_DELIVERY","PICKUP"],"customerTypes":["B2B","B2C"],"cityGroups":null,"customLogoURI":null}]}},"R":{"Rimbo":{"Rimbo":[{"id":"01458","name":"ICA Supermarket Rimbo","city":"Rimbo","street":"Norrtäljevägen 6","zipCode":"76222","area":"Rimbo","storeFormat":"supermarket","marketingText":"Handla hela veckans mat - som privat- eller företagskund.","latitude":59.7447,"longitude":18.37841,"deliveryMethods":["HOME_DELIVERY","PICKUP"],"customerTypes":["B2B","B2C"],"cityGroups":["Storstockholm"],"customLogoURI":null}]},"Rimforsa":{"Rimforsa":[{"id":"02109","name":"ICA Supermarket Rimforsa","city":"Rimforsa","street":"Kalmarvägen 24","zipCode":"59041","area":"Rimforsa","storeFormat":"supermarket","marketingText":"Spara tid och välj själv när du vill hämta upp dina färdigpackade varor.","latitude":58.137741,"longitude":15.684999,"deliveryMethods":["PICKUP"],"customerTypes":["B2C"],"cityGroups":null,"customLogoURI":null}]},"Robertsfors":{"Robertsfors":[{"id":"00238","name":"ICA Supermarket Robertsfors","city":"Robertsfors","street":"Storgatan 30","zipCode":"91532","area":"Robertsfors","storeFormat":"supermarket","marketingText":"Handla och hämta när det passar dig bäst!","latitude":64.194225,"longitude":20.846854,"deliveryMethods":["HOME_DELIVERY","PICKUP"],"customerTypes":["B2B","B2C"],"cityGroups":null,"customLogoURI":null}]},"Rottne":{"Rottne":[{"id":"02282","name":"ICA Supermarket Rottne","city":"Rottne","street":"Löpanäsvägen 12","area":"ROTTNE","storeFormat":"supermarket","marketingText":"Få varorna hemlevererade eller hämta dem i vår butik - vi ger nya kunder 5% rabatt!\t","latitude":57.02219,"longitude":14.891721,"deliveryMethods":["HOME_DELIVERY","PICKUP"],"customerTypes":["B2B","B2C"],"cityGroups":null,"customLogoURI":null}]},"Rönninge":{"Rönninge":[{"id":"13747","name":"ICA Supermarket Salem","city":"Rönninge","street":"Säby Torg 27","zipCode":"14430","area":"Rönninge","storeFormat":"supermarket","marketingText":"Hämta i butik eller få varorna hemlevererade. Färska och fräscha varor direkt från butiken","latitude":59.201891,"longitude":17.766614,"deliveryMethods":["HOME_DELIVERY","PICKUP"],"customerTypes":["B2B","B2C"],"cityGroups":null,"customLogoURI":null}]}},"S":{"Sala":{"Sala":[{"id":"03541","name":"ICA Kvantum Åkrahallen","city":"Sala","street":"Berggatan 13","zipCode":"73335","area":"Sala","storeFormat":"kvantum","marketingText":"Spara tid genom att handla mat hos oss på nätet. Hämta smidigt dina varor i vår drive-in!","latitude":59.922754,"longitude":16.588162,"deliveryMethods":["PICKUP"],"customerTypes":["B2B","B2C"],"cityGroups":null,"customLogoURI":null}]},"Sandviken":{"Sandviken":[{"id":"00776","name":"ICA Supermarket Björksätra","city":"Sandviken","street":"Björksätra Mitt ","zipCode":"81150","area":"Sandviken","storeFormat":"supermarket","marketingText":"Vi levererar varorna till din dörr, eller hämta smidigt upp dem i butiken.","latitude":60.606429,"longitude":16.751336,"deliveryMethods":["HOME_DELIVERY","PICKUP"],"customerTypes":["B2B","B2C"],"cityGroups":null,"customLogoURI":null},{"id":"11068","name":"Maxi ICA Stormarknad Sandviken","city":"Sandviken","street":"Linggatan 25","zipCode":"81132","area":"SANDVIKEN","storeFormat":"maxi","marketingText":"Fri upphämtning i butik – fem dagar i veckan!","latitude":60.624173,"longitude":16.772875,"deliveryMethods":["HOME_DELIVERY","PICKUP"],"customerTypes":["B2B","B2C"],"cityGroups":null,"customLogoURI":null}]},"Sjöbo":{"Sjöbo":[{"id":"02707","name":"ICA Supermarket Sjöbo","city":"Sjöbo","street":"Planteringsgatan 50","zipCode":"27533","area":"Sjöbo","storeFormat":"supermarket","marketingText":"Lika enkelt som snabbt! Vi plockar omsorgsfullt dina varor. Alltid gratis att hämta i butik.","latitude":55.634988,"longitude":13.685818,"deliveryMethods":["HOME_DELIVERY","PICKUP"],"customerTypes":["B2B","B2C"],"cityGroups":null,"customLogoURI":null}]},"Skellefteå":{"Skellefteå":[{"id":"12045","name":"Maxi ICA Stormarknad Skellefteå","city":"Skellefteå","street":"Varugatan 28","zipCode":"93176","area":"Skellefteå","storeFormat":"maxi","marketingText":"Få dina varor hemlevererade - fem dagar i veckan!","latitude":64.766062,"longitude":21.02511,"deliveryMethods":["HOME_DELIVERY","PICKUP"],"customerTypes":["B2B","B2C"],"cityGroups":null,"customLogoURI":null}]},"Skivarp":{"Skivarp":[{"id":"02703","name":"ICA Nära Tores Allköp","city":"Skivarp","street":"Landsvägen 33","zipCode":"27450","area":"Skivarp","storeFormat":"nara","marketingText":"Personlig service och handplockade varor - gratis att hämta i butik!","latitude":55.423,"longitude":13.569,"deliveryMethods":["PICKUP"],"customerTypes":["B2B","B2C"],"cityGroups":null,"customLogoURI":null}]},"Skogås":{"Skogås":[{"id":"01169","name":"ICA Supermarket Skogås","city":"Skogås","street":"Skogåstorget 12","zipCode":"14221","area":"SKOGÅS","storeFormat":"supermarket","marketingText":"Brett sortiment av kvalitetsvaror - du väljer själv när du vill hämta eller få hemleverans.","latitude":59.217753,"longitude":18.153444,"deliveryMethods":["HOME_DELIVERY","PICKUP"],"customerTypes":["B2B","B2C"],"cityGroups":["Storstockholm"],"customLogoURI":null}]},"Skärhamn":{"Skärhamn":[{"id":"01638","name":"ICA Supermarket Nordeviks","city":"Skärhamn","street":"Kroksdalsvägen 4","zipCode":"47132","area":"Skärhamn","storeFormat":"supermarket","marketingText":"Lika fylld med kvalitetsvaror som vår fysiska butik. Handla i lugn och ro, dygnet runt!","latitude":57.985713,"longitude":11.554032,"deliveryMethods":["HOME_DELIVERY","PICKUP"],"customerTypes":["B2B","B2C"],"cityGroups":null,"customLogoURI":null}]},"Skövde":{"Skövde":[{"id":"09588","name":"Maxi ICA Stormarknad Skövde","city":"Skövde","street":"Köpmannagatan 3","zipCode":"54145","area":"Skövde","storeFormat":"maxi","marketingText":"Handla bekvämt och välj hemleverans när det passar dig!","latitude":58.405,"longitude":13.856,"deliveryMethods":["HOME_DELIVERY","PICKUP"],"customerTypes":["B2B","B2C"],"cityGroups":null,"customLogoURI":null}]},"Sollebrunn":{"Sollebrunn":[{"id":"01839","name":"ICA Supermarket Sollebrunn","city":"Sollebrunn","street":"Trollhättevägen 6","area":"Sollebrunn","storeFormat":"supermarket","marketingText":"Hämta upp varorna på butikens baksida – hur smidigt som helst!","latitude":58.120128,"longitude":12.532146,"deliveryMethods":["PICKUP"],"customerTypes":["B2B","B2C"],"cityGroups":null,"customLogoURI":null}]},"Solna":{"Solna":[{"id":"11920","name":"Maxi ICA Stormarknad Solna","city":"Solna","street":"Svetsarvägen 16","zipCode":"17141","area":"Solna","storeFormat":"maxi","marketingText":"Hemleverans och hämtning i butik alla vardagar!","latitude":59.358606,"longitude":17.980684,"deliveryMethods":["HOME_DELIVERY","PICKUP"],"customerTypes":["B2B","B2C"],"cityGroups":["Storstockholm"],"customLogoURI":null}]},"Stjärnhov":{"Stjärnhov":[{"id":"01396","name":"ICA Nära Strandhallen","city":"Stjärnhov","street":"Dagavägen 13","zipCode":"64651","area":"Stjärnhov","storeFormat":"nara","marketingText":"Handla till samma pris som i den fysiska butiken och få varorna hemlevererade!","latitude":59.079082,"longitude":17.011877,"deliveryMethods":["HOME_DELIVERY","PICKUP"],"customerTypes":["B2B","B2C"],"cityGroups":null,"customLogoURI":null}]},"Stockholm":{"Stockholm":[{"id":"13417","name":"ICA Kvantum Värtan","city":"Stockholm","street":"Malmvägen 13","zipCode":"11541","area":"Stockholm","storeFormat":"kvantum","marketingText":"Handla enkelt och bekvämt. Hämta kassarna i butiken eller få dem hemlevererade.","latitude":59.347127,"longitude":18.113343,"deliveryMethods":["HOME_DELIVERY","PICKUP"],"customerTypes":["B2B","B2C"],"cityGroups":["Storstockholm"],"customLogoURI":null},{"id":"01253","name":"ICA Nära Banér","city":"Stockholm","street":"Banérgatan 3","zipCode":"11456","area":"Stockholm","storeFormat":"nara","marketingText":"Hemleverans alla vardagar och alltid gratis att hämta varorna i butiken. Välkommen!","latitude":59.332441,"longitude":18.090865,"deliveryMethods":["HOME_DELIVERY","PICKUP"],"customerTypes":["B2C"],"cityGroups":["Storstockholm"],"customLogoURI":null},{"id":"01256","name":"ICA Nära Karlaplan","city":"Stockholm","street":"Karlavägen 82","zipCode":"11522","area":"Stockholm","storeFormat":"nara","marketingText":"Samma pris eller lägre som i vår butik. Gratis hemleverans vid köp över 500kr.","latitude":59.337174,"longitude":18.091098,"deliveryMethods":["HOME_DELIVERY","PICKUP"],"customerTypes":["B2C"],"cityGroups":["Storstockholm"],"customLogoURI":null},{"id":"15215","name":"ICA Nära Årstadal","city":"Stockholm","street":"Förmansvägen 10","zipCode":"11759","area":"STOCKHOLM","storeFormat":"nara","marketingText":"Välj bland tusentals artiklar i din ekologiska butik på nätet. Fri frakt vid köp över 1500 kr.","latitude":59.3061,"longitude":18.0253,"deliveryMethods":["HOME_DELIVERY","PICKUP"],"customerTypes":["B2B","B2C"],"cityGroups":["Storstockholm"],"customLogoURI":null},{"id":"14926","name":"ICA Supermarket Fältöversten","city":"Stockholm","street":"Karlaplan 13","zipCode":"11520","area":"Stockholm","storeFormat":"supermarket","marketingText":"Miljövänlig hemleverans fem dagar i veckan!","latitude":59.339485,"longitude":18.091182,"deliveryMethods":["HOME_DELIVERY","PICKUP"],"customerTypes":["B2B","B2C"],"cityGroups":["Storstockholm"],"customLogoURI":null},{"id":"13026","name":"ICA Supermarket Sabbatsberg","city":"Stockholm","street":"Dalagatan 9N","zipCode":"11361","area":"Stockholm","storeFormat":"supermarket","marketingText":"Här får du samma personliga service som i vår fysiska butik!","latitude":59.340021,"longitude":18.047076,"deliveryMethods":["HOME_DELIVERY","PICKUP"],"customerTypes":["B2B","B2C"],"cityGroups":["Storstockholm"],"customLogoURI":null},{"id":"14992","name":"ICA Supermarket Sjöstaden","city":"Stockholm","street":"Hammarby Allé 49","zipCode":"12030","area":"Stockholm","storeFormat":"supermarket","marketingText":"Här får du samma personliga service som i vår fysiska butik!","latitude":59.302992,"longitude":18.088365,"deliveryMethods":["HOME_DELIVERY","PICKUP"],"customerTypes":["B2B","B2C"],"cityGroups":["Storstockholm"],"customLogoURI":null},{"id":"13021","name":"ICA Supermarket Vanadis","city":"Stockholm","street":"Vanadisvägen 12 B","zipCode":"11346","area":"Stockholm","storeFormat":"supermarket","marketingText":"Hemleverans sex dagar i veckan!","latitude":59.347671,"longitude":18.048874,"deliveryMethods":["HOME_DELIVERY","PICKUP"],"customerTypes":["B2B","B2C"],"cityGroups":["Storstockholm"],"customLogoURI":null},{"id":"13164","name":"Maxi ICA Stormarknad Lindhagen","city":"Stockholm","street":"Lindhagensgatan 118","zipCode":"11251","area":"Stockholm","storeFormat":"maxi","marketingText":"Handla bland över 20 000 artiklar. Gratis hemleverans för privatpersoner vid köp över 1500 kr.","latitude":59.337311,"longitude":18.009552,"deliveryMethods":["HOME_DELIVERY","PICKUP"],"customerTypes":["B2B","B2C"],"cityGroups":["Storstockholm"],"customLogoURI":null}]},"Storstockholm":{"Brottby":[{"id":"01437","name":"ICA Nära Brottbyhallen","city":"Brottby","street":"Karby Torg 7","zipCode":"18670","area":"Brottby","storeFormat":"nara","marketingText":"Hemleverans i kylbil måndag-söndag. Gratis upphämtning!","latitude":59.560514,"longitude":18.226798,"deliveryMethods":["HOME_DELIVERY","PICKUP"],"customerTypes":["B2B","B2C"],"cityGroups":["Storstockholm"],"customLogoURI":null}],"Gustavsberg":[{"id":"14819","name":"Maxi ICA Stormarknad Värmdö","city":"Gustavsberg","street":"Afrodites väg 6","zipCode":"13427","area":"Gustavsberg","storeFormat":"maxi","marketingText":"Handla från vårt stora sortiment med lokala leverantörer och eget bageri.","latitude":59.311951,"longitude":18.425446,"deliveryMethods":["PICKUP"],"customerTypes":["B2B","B2C"],"cityGroups":["Storstockholm"],"customLogoURI":null}],"Haninge":[{"id":"09563","name":"Maxi ICA Stormarknad Haninge","city":"Haninge","street":"Österport 4","zipCode":"13647","area":"Söderby","storeFormat":"maxi","marketingText":"Alltid gratis att hämta i butik och fri hemleverans vid köp över 1500 kr!","latitude":59.181258,"longitude":18.158273,"deliveryMethods":["HOME_DELIVERY","PICKUP"],"customerTypes":["B2B","B2C"],"cityGroups":["Storstockholm"],"customLogoURI":null}],"Norrtälje":[{"id":"01447","name":"ICA Kvantum Flygfyren","city":"Norrtälje","street":"Gustaf Adolfs väg 55","zipCode":"76123","area":"Norrtälje","storeFormat":"kvantum","marketingText":"Samma pris som i butik och stort utbud av egenproducerade varor. Hemleverans alla dagar.","latitude":59.752457,"longitude":18.694342,"deliveryMethods":["HOME_DELIVERY","PICKUP"],"customerTypes":["B2B","B2C"],"cityGroups":["Storstockholm"],"customLogoURI":"local-image://flygfyren"},{"id":"01441","name":"ICA Supermarket Norrköp","city":"Norrtälje","street":"Noorsgatan 1","zipCode":"76161","area":"Norrtälje","storeFormat":"supermarket","marketingText":"Hämta upp dina varor i vår Drive thru eller få dem hemlevererade.","latitude":59.766582,"longitude":18.713501,"deliveryMethods":["HOME_DELIVERY","PICKUP"],"customerTypes":["B2B","B2C"],"cityGroups":["Storstockholm"],"customLogoURI":null}],"Norsborg":[{"id":"09411","name":"Maxi ICA Stormarknad Botkyrka","city":"Norsborg","street":"Kumla Gårdsväg 30","zipCode":"14563","area":"Botkyrka","storeFormat":"maxi","marketingText":"Alltid gratis att hämta dina varor i butiken - hämta smart och smidigt i vår hämtstation.","latitude":59.237023,"longitude":17.83193,"deliveryMethods":["HOME_DELIVERY","PICKUP"],"customerTypes":["B2B","B2C"],"cityGroups":["Storstockholm"],"customLogoURI":null}],"Rimbo":[{"id":"01458","name":"ICA Supermarket Rimbo","city":"Rimbo","street":"Norrtäljevägen 6","zipCode":"76222","area":"Rimbo","storeFormat":"supermarket","marketingText":"Handla hela veckans mat - som privat- eller företagskund.","latitude":59.7447,"longitude":18.37841,"deliveryMethods":["HOME_DELIVERY","PICKUP"],"customerTypes":["B2B","B2C"],"cityGroups":["Storstockholm"],"customLogoURI":null}],"Skogås":[{"id":"01169","name":"ICA Supermarket Skogås","city":"Skogås","street":"Skogåstorget 12","zipCode":"14221","area":"SKOGÅS","storeFormat":"supermarket","marketingText":"Brett sortiment av kvalitetsvaror - du väljer själv när du vill hämta eller få hemleverans.","latitude":59.217753,"longitude":18.153444,"deliveryMethods":["HOME_DELIVERY","PICKUP"],"customerTypes":["B2B","B2C"],"cityGroups":["Storstockholm"],"customLogoURI":null}],"Solna":[{"id":"11920","name":"Maxi ICA Stormarknad Solna","city":"Solna","street":"Svetsarvägen 16","zipCode":"17141","area":"Solna","storeFormat":"maxi","marketingText":"Hemleverans och hämtning i butik alla vardagar!","latitude":59.358606,"longitude":17.980684,"deliveryMethods":["HOME_DELIVERY","PICKUP"],"customerTypes":["B2B","B2C"],"cityGroups":["Storstockholm"],"customLogoURI":null}],"Stockholm":[{"id":"13417","name":"ICA Kvantum Värtan","city":"Stockholm","street":"Malmvägen 13","zipCode":"11541","area":"Stockholm","storeFormat":"kvantum","marketingText":"Handla enkelt och bekvämt. Hämta kassarna i butiken eller få dem hemlevererade.","latitude":59.347127,"longitude":18.113343,"deliveryMethods":["HOME_DELIVERY","PICKUP"],"customerTypes":["B2B","B2C"],"cityGroups":["Storstockholm"],"customLogoURI":null},{"id":"01253","name":"ICA Nära Banér","city":"Stockholm","street":"Banérgatan 3","zipCode":"11456","area":"Stockholm","storeFormat":"nara","marketingText":"Hemleverans alla vardagar och alltid gratis att hämta varorna i butiken. Välkommen!","latitude":59.332441,"longitude":18.090865,"deliveryMethods":["HOME_DELIVERY","PICKUP"],"customerTypes":["B2C"],"cityGroups":["Storstockholm"],"customLogoURI":null},{"id":"01256","name":"ICA Nära Karlaplan","city":"Stockholm","street":"Karlavägen 82","zipCode":"11522","area":"Stockholm","storeFormat":"nara","marketingText":"Samma pris eller lägre som i vår butik. Gratis hemleverans vid köp över 500kr.","latitude":59.337174,"longitude":18.091098,"deliveryMethods":["HOME_DELIVERY","PICKUP"],"customerTypes":["B2C"],"cityGroups":["Storstockholm"],"customLogoURI":null},{"id":"15215","name":"ICA Nära Årstadal","city":"Stockholm","street":"Förmansvägen 10","zipCode":"11759","area":"STOCKHOLM","storeFormat":"nara","marketingText":"Välj bland tusentals artiklar i din ekologiska butik på nätet. Fri frakt vid köp över 1500 kr.","latitude":59.3061,"longitude":18.0253,"deliveryMethods":["HOME_DELIVERY","PICKUP"],"customerTypes":["B2B","B2C"],"cityGroups":["Storstockholm"],"customLogoURI":null},{"id":"14926","name":"ICA Supermarket Fältöversten","city":"Stockholm","street":"Karlaplan 13","zipCode":"11520","area":"Stockholm","storeFormat":"supermarket","marketingText":"Miljövänlig hemleverans fem dagar i veckan!","latitude":59.339485,"longitude":18.091182,"deliveryMethods":["HOME_DELIVERY","PICKUP"],"customerTypes":["B2B","B2C"],"cityGroups":["Storstockholm"],"customLogoURI":null},{"id":"13026","name":"ICA Supermarket Sabbatsberg","city":"Stockholm","street":"Dalagatan 9N","zipCode":"11361","area":"Stockholm","storeFormat":"supermarket","marketingText":"Här får du samma personliga service som i vår fysiska butik!","latitude":59.340021,"longitude":18.047076,"deliveryMethods":["HOME_DELIVERY","PICKUP"],"customerTypes":["B2B","B2C"],"cityGroups":["Storstockholm"],"customLogoURI":null},{"id":"14992","name":"ICA Supermarket Sjöstaden","city":"Stockholm","street":"Hammarby Allé 49","zipCode":"12030","area":"Stockholm","storeFormat":"supermarket","marketingText":"Här får du samma personliga service som i vår fysiska butik!","latitude":59.302992,"longitude":18.088365,"deliveryMethods":["HOME_DELIVERY","PICKUP"],"customerTypes":["B2B","B2C"],"cityGroups":["Storstockholm"],"customLogoURI":null},{"id":"13021","name":"ICA Supermarket Vanadis","city":"Stockholm","street":"Vanadisvägen 12 B","zipCode":"11346","area":"Stockholm","storeFormat":"supermarket","marketingText":"Hemleverans sex dagar i veckan!","latitude":59.347671,"longitude":18.048874,"deliveryMethods":["HOME_DELIVERY","PICKUP"],"customerTypes":["B2B","B2C"],"cityGroups":["Storstockholm"],"customLogoURI":null},{"id":"13164","name":"Maxi ICA Stormarknad Lindhagen","city":"Stockholm","street":"Lindhagensgatan 118","zipCode":"11251","area":"Stockholm","storeFormat":"maxi","marketingText":"Handla bland över 20 000 artiklar. Gratis hemleverans för privatpersoner vid köp över 1500 kr.","latitude":59.337311,"longitude":18.009552,"deliveryMethods":["HOME_DELIVERY","PICKUP"],"customerTypes":["B2B","B2C"],"cityGroups":["Storstockholm"],"customLogoURI":null}],"Tullinge":[{"id":"15787","name":"ICA Nära Riksten","city":"Tullinge","street":"Flottiljvägen 85","zipCode":"14634","area":"TULLINGE","storeFormat":"nara","marketingText":"Handla bekvämt när som helst på dygnet. Välkommen till ICA Nära Riksten - din lokala näthandel!","latitude":59.188411,"longitude":17.917069,"deliveryMethods":["HOME_DELIVERY","PICKUP"],"customerTypes":["B2B","B2C"],"cityGroups":["Storstockholm"],"customLogoURI":null}],"Vallentuna":[{"id":"01143","name":"ICA Kvantum Vallentuna","city":"Vallentuna","street":"Torggatan 17","zipCode":"18631","area":"Vallentuna","storeFormat":"kvantum","marketingText":"Välkommen till oss - här finns något för veckans alla dagar!","latitude":59.535212,"longitude":18.078521,"deliveryMethods":["HOME_DELIVERY","PICKUP"],"customerTypes":["B2B","B2C"],"cityGroups":["Storstockholm"],"customLogoURI":null}],"Älta":[{"id":"01315","name":"ICA Nära Älta","city":"Älta","street":"Oxelvägen 42","zipCode":"13830","area":"Älta","storeFormat":"nara","marketingText":"Service, kvalitet och närhet hos ICA Nära Älta!","latitude":59.256383,"longitude":18.176268,"deliveryMethods":["HOME_DELIVERY","PICKUP"],"customerTypes":["B2B","B2C"],"cityGroups":["Storstockholm"],"customLogoURI":null}],"Åkersberga":[{"id":"13704","name":"ICA Kvantum Åkersberga","city":"Åkersberga","street":"Storängstorget 4","zipCode":"18430","area":"Åkersberga","storeFormat":"kvantum","marketingText":"Alltid gratis att hämta dina varor i butik. Vi fyller på med nya färskvaror varje dag!","latitude":59.479809,"longitude":18.299043,"deliveryMethods":["HOME_DELIVERY","PICKUP"],"customerTypes":["B2B","B2C"],"cityGroups":["Storstockholm"],"customLogoURI":null},{"id":"01152","name":"ICA Nära Trevehallen","city":"Åkersberga","street":"Trevebovägen 1","zipCode":"18432","area":"Åkersberga","storeFormat":"nara","marketingText":"Låt oss packa och plocka dina varor – till samma pris som i butiken.","latitude":59.494433,"longitude":18.281102,"deliveryMethods":["HOME_DELIVERY","PICKUP"],"customerTypes":["B2B","B2C"],"cityGroups":["Storstockholm"],"customLogoURI":null}],"Årsta":[{"id":"12929","name":"ICA Nära Årsta","city":"Årsta","street":"Sköntorpsvägen 27","zipCode":"12038","area":"Årsta","storeFormat":"nara","marketingText":"Handla snabbt och enkelt. Hemleverans alla vardagar.","latitude":59.297911,"longitude":18.062965,"deliveryMethods":["HOME_DELIVERY","PICKUP"],"customerTypes":["B2B","B2C"],"cityGroups":["Storstockholm"],"customLogoURI":null}],"Ösmo":[{"id":"01374","name":"ICA Supermarket Ösmo","city":"Ösmo","street":"Box 71","zipCode":"14822","area":"Ösmo","storeFormat":"supermarket","marketingText":"Handla till både vardag och fest – enkelt och bekvämt!","latitude":58.983223,"longitude":17.895568,"deliveryMethods":["PICKUP"],"customerTypes":["B2C"],"cityGroups":["Storstockholm"],"customLogoURI":null}]},"Storuman":{"Storuman":[{"id":"00254","name":"ICA Supermarket Storuman","city":"Storuman","street":"Skolgatan 21","zipCode":"92324","area":"STORUMAN","storeFormat":"supermarket","marketingText":"Alltid gratis att hämta upp dina varor i butiken.","latitude":65.095904,"longitude":17.114043,"deliveryMethods":["HOME_DELIVERY","PICKUP"],"customerTypes":["B2B","B2C"],"cityGroups":null,"customLogoURI":null}]},"Sundsvall":{"Sundsvall":[{"id":"00429","name":"ICA Supermarket Esplanad","city":"Sundsvall","street":"Esplanaden 5","zipCode":"85232","area":"Sundsvall","storeFormat":"supermarket","marketingText":"Spara tid genom att handla hos oss på nätet. Beställ i lugn och ro när som helst på dygnet.","latitude":62.39145,"longitude":17.309257,"deliveryMethods":["HOME_DELIVERY","PICKUP"],"customerTypes":["B2B","B2C"],"cityGroups":null,"customLogoURI":null},{"id":"12678","name":"Maxi ICA Stormarknad Sundsvall","city":"Sundsvall","street":"Antennvägen 11","zipCode":"86337","area":"Sundsvall","storeFormat":"maxi","marketingText":"Hämta smidigt i vår drive thru eller få dina varor hemlevererade.","latitude":62.443374,"longitude":17.348722,"deliveryMethods":["HOME_DELIVERY","PICKUP"],"customerTypes":["B2B","B2C"],"cityGroups":null,"customLogoURI":null}]},"Svalöv":{"Svalöv":[{"id":"02863","name":"ICA Supermarket Svalöv","city":"Svalöv","street":"Svalegatan 14","zipCode":"26831","area":"Svalöv","storeFormat":"supermarket","marketingText":"Välj bland ett stort och fräscht sortiment. Alltid gratis upphämtning i butik.","latitude":55.913993,"longitude":13.108937,"deliveryMethods":["PICKUP"],"customerTypes":["B2B","B2C"],"cityGroups":null,"customLogoURI":null}]},"Svenstavik":{"Svenstavik":[{"id":"00524","name":"ICA Supermarket Svenstavik","city":"Svenstavik","street":"Tingshusvägen 1","zipCode":"84531","area":"SVENSTAVIK","storeFormat":"supermarket","marketingText":"Handla hela veckans mat när det passar dig. Vi handplockar dina varor med omsorg!","latitude":62.767724,"longitude":14.435031,"deliveryMethods":["PICKUP"],"customerTypes":["B2B","B2C"],"cityGroups":null,"customLogoURI":null}]},"Säffle":{"Säffle":[{"id":"15139","name":"ICA Kvantum Säffle","city":"Säffle","street":"Karlavagnsvägen 2","zipCode":"66194","area":"SÄFFLE","storeFormat":"kvantum","marketingText":"Hämta dina varor kostnadsfritt i butiken eller få hemlevererat. Vi plockar och packar dina kassar!","latitude":59.128,"longitude":12.886,"deliveryMethods":["HOME_DELIVERY","PICKUP"],"customerTypes":["B2B","B2C"],"cityGroups":null,"customLogoURI":null}]},"Sälen":{"Sälen":[{"id":"11436","name":"ICA Nära Lindvallen","city":"Sälen","street":"Hemfjällsvägen 22","zipCode":"78067","area":"Sälen","storeFormat":"nara","marketingText":"Leverans 7 dagar i veckan - Till bilen, in i kylen, till dörren eller hämta själv.","latitude":61.15678,"longitude":13.206,"deliveryMethods":["HOME_DELIVERY","PICKUP"],"customerTypes":["B2B","B2C"],"cityGroups":null,"customLogoURI":null}]},"Sävar":{"Sävar":[{"id":"00324","name":"ICA Supermarket Sävar","city":"Sävar","street":"Generalsvägen 25","zipCode":"91831","area":"Sävar","storeFormat":"supermarket","marketingText":"Slipp plocka varor och stå i kö – vi plockar och packar åt dig. Hämta enkelt direkt i butiken!","latitude":63.900911,"longitude":20.551156,"deliveryMethods":["PICKUP"],"customerTypes":["B2C"],"cityGroups":null,"customLogoURI":null}]},"Söderköping":{"Söderköping":[{"id":"13755","name":"ICA Supermarket Söderköping","city":"Söderköping","street":"Margaretagatan 40","zipCode":"61431","area":"Söderköping","storeFormat":"supermarket","marketingText":"Hämta varorna i vår Drive-in, sju dagar i veckan!","latitude":58.475576,"longitude":16.331198,"deliveryMethods":["PICKUP"],"customerTypes":["B2B","B2C"],"cityGroups":null,"customLogoURI":null}]},"Södra sandby":{"Södra sandby":[{"id":"02786","name":"ICA Kvantum Södra Sandby","city":"Södra sandby","street":"Revingevägen 2","zipCode":"24731","area":"SÖDRA SANDBY","storeFormat":"kvantum","marketingText":"Butikstyckat kött och unika produkter från Anderssons KÖK, bland mycket annat!","latitude":55.717022,"longitude":13.343115,"deliveryMethods":["HOME_DELIVERY","PICKUP"],"customerTypes":["B2B","B2C"],"cityGroups":null,"customLogoURI":null}]},"Sölvesborg":{"Sölvesborg":[{"id":"02492","name":"ICA Supermarket Sölvesborg","city":"Sölvesborg","street":"Järnvägsgatan 1","zipCode":"29434","area":"SÖLVESBORG","storeFormat":"supermarket","marketingText":"En färskvarubutik med personlig service och ett brett sortiment!","latitude":56.049633,"longitude":14.58194,"deliveryMethods":["PICKUP"],"customerTypes":["B2B","B2C"],"cityGroups":null,"customLogoURI":null}]}},"T":{"Tidaholm":{"Tidaholm":[{"id":"13421","name":"ICA Kvantum Tidaholm","city":"Tidaholm","street":"Järnvägsgatan 5","zipCode":"52230","area":"Tidaholm","storeFormat":"kvantum","marketingText":"Få varorna hemlevererade eller hämta dem i butik - alla vardagar.","latitude":58.179606,"longitude":13.950539,"deliveryMethods":["HOME_DELIVERY","PICKUP"],"customerTypes":["B2B","B2C"],"cityGroups":null,"customLogoURI":null}]},"Tierp":{"Tierp":[{"id":"01491","name":"ICA Supermarket Tierp","city":"Tierp","street":"Centralgatan 12","zipCode":"81538","area":"Tierp","storeFormat":"supermarket","marketingText":"Fri upphämtning i butik fem dagar i veckan!","latitude":60.344,"longitude":17.515,"deliveryMethods":["PICKUP"],"customerTypes":["B2B","B2C"],"cityGroups":null,"customLogoURI":null}]},"Tjällmo":{"Tjällmo":[{"id":"01036","name":"ICA Nära Tjällmo handel","city":"Tjällmo","street":"Länsvägen 60","zipCode":"59034","area":"Tjällmo","storeFormat":"nara","marketingText":"Handla i lugn och ro när du har tid!","latitude":58.714874,"longitude":15.358213,"deliveryMethods":["HOME_DELIVERY","PICKUP"],"customerTypes":["B2B","B2C"],"cityGroups":null,"customLogoURI":null}]},"Torsby":{"Torsby":[{"id":"08921","name":"ICA Supermarket Toria","city":"Torsby","street":"Toria center","zipCode":"68532","area":"TORSBY","storeFormat":"supermarket","marketingText":"Vi handplockar dina varor - du väljer själv när du vill hämta upp dem!","latitude":60.130673,"longitude":12.99306,"deliveryMethods":["PICKUP"],"customerTypes":["B2B","B2C"],"cityGroups":null,"customLogoURI":null}]},"Torslanda":{"Torslanda":[{"id":"11601","name":"Maxi ICA Stormarknad Torslanda","city":"Torslanda","street":"Gamla Flygplatsvägen 60","zipCode":"42337","area":"Torslanda","storeFormat":"maxi","marketingText":"Handla i lugn och ro när det passar dig – vi har alltid öppet!","latitude":57.709295,"longitude":11.772848,"deliveryMethods":["HOME_DELIVERY","PICKUP"],"customerTypes":["B2B","B2C"],"cityGroups":null,"customLogoURI":null}]},"Torsåker":{"Torsåker":[{"id":"00753","name":"ICA Nära Tor Center","city":"Torsåker","street":"Berlins väg 8","zipCode":"81302","area":"TORSÅKER","storeFormat":"nara","marketingText":"Handla lokalt med personlig service!","latitude":60.511,"longitude":16.473,"deliveryMethods":["HOME_DELIVERY","PICKUP"],"customerTypes":["B2B","B2C"],"cityGroups":null,"customLogoURI":null}]},"Trelleborg":{"Trelleborg":[{"id":"02807","name":"Maxi ICA Stormarknad Trelleborg","city":"Trelleborg","street":"Strandridaregatan 10","zipCode":"23161","area":"Trelleborg","storeFormat":"maxi","marketingText":"Beställ i lugn och ro när som helst på dygnet.","latitude":55.373897,"longitude":13.13052,"deliveryMethods":["HOME_DELIVERY","PICKUP"],"customerTypes":["B2B","B2C"],"cityGroups":null,"customLogoURI":null}]},"Trollhättan":{"Trollhättan":[{"id":"01828","name":"ICA Kvantum Jätten Trollhättan","city":"Trollhättan","street":"Skogmansgatan 22","zipCode":"46141","area":"Trollhättan","storeFormat":"kvantum","marketingText":"Hemleverans eller hämta i butik – fem dagar i veckan!","latitude":58.28406,"longitude":12.3137,"deliveryMethods":["HOME_DELIVERY","PICKUP"],"customerTypes":["B2B","B2C"],"cityGroups":null,"customLogoURI":null}]},"Trosa":{"Trosa":[{"id":"03576","name":"ICA Supermarket Trossen","city":"Trosa","street":"Verktygsgatan 1","zipCode":"61923","area":"TROSA","storeFormat":"supermarket","marketingText":"Här kan du hämta dina varor alla dagar i veckan!","latitude":58.906544,"longitude":17.551114,"deliveryMethods":["HOME_DELIVERY","PICKUP"],"customerTypes":["B2B","B2C"],"cityGroups":null,"customLogoURI":null}]},"Tullinge":{"Tullinge":[{"id":"15787","name":"ICA Nära Riksten","city":"Tullinge","street":"Flottiljvägen 85","zipCode":"14634","area":"TULLINGE","storeFormat":"nara","marketingText":"Handla bekvämt när som helst på dygnet. Välkommen till ICA Nära Riksten - din lokala näthandel!","latitude":59.188411,"longitude":17.917069,"deliveryMethods":["HOME_DELIVERY","PICKUP"],"customerTypes":["B2B","B2C"],"cityGroups":["Storstockholm"],"customLogoURI":null}]},"Täby":{"Täby":[{"id":"15076","name":"ICA Kvantum Täby Centrum","city":"Täby","street":"Stora Marknadsvägen 15","zipCode":"18334","area":"Täby","storeFormat":"kvantum","marketingText":"Med eget bageri och färskvaror till mycket bra priser!","latitude":59.445045,"longitude":18.074146,"deliveryMethods":["HOME_DELIVERY","PICKUP"],"customerTypes":["B2B","B2C"],"cityGroups":null,"customLogoURI":null},{"id":"01201","name":"ICA Supermarket Stop","city":"Täby","street":"Bergtorpsvägen 45B","zipCode":"18364","area":"Täby","storeFormat":"supermarket","marketingText":"Välkommen att handla i vår saluhall på nätet!","latitude":59.442463,"longitude":18.0957,"deliveryMethods":["HOME_DELIVERY","PICKUP"],"customerTypes":["B2B","B2C"],"cityGroups":null,"customLogoURI":null}]}},"U":{"Ullånger":{"Ullånger":[{"id":"00173","name":"ICA Nära Ullånger","city":"Ullånger","street":"Centrumvägen 1","zipCode":"87032","area":"ULLÅNGER","storeFormat":"nara","marketingText":"Alltid gratis att hämta upp dina varor i butiken!","latitude":63.010264,"longitude":18.188471,"deliveryMethods":["HOME_DELIVERY","PICKUP"],"customerTypes":["B2B","B2C"],"cityGroups":null,"customLogoURI":null}]},"Umeå":{"Umeå":[{"id":"00292","name":"ICA Kvantum Kronoparken","city":"Umeå","street":"Kronoskogsvägen 18","zipCode":"90361","area":"Umeå","storeFormat":"kvantum","marketingText":"Hemleverans alla vardagar och gratis upphämtning i vår smidiga drive-in.","latitude":63.840726,"longitude":20.191501,"deliveryMethods":["HOME_DELIVERY","PICKUP"],"customerTypes":["B2B","B2C"],"cityGroups":null,"customLogoURI":null},{"id":"00317","name":"ICA Supermarket Teg","city":"Umeå","street":"Verkstadgatan 1","zipCode":"90432","area":"Umeå","storeFormat":"supermarket","marketingText":"Handla när du vill - vi plockar och packar dina varor med omsorg.","latitude":63.818884,"longitude":20.247888,"deliveryMethods":["HOME_DELIVERY","PICKUP"],"customerTypes":["B2B","B2C"],"cityGroups":null,"customLogoURI":null},{"id":"09725","name":"Maxi ICA Stormarknad Umeå","city":"Umeå","street":"Strömspilsplatsen 41","zipCode":"90743","area":"Umeå","storeFormat":"maxi","marketingText":"Hemleverans och hämtning i butik alla vardagar!","latitude":63.79816,"longitude":20.30211,"deliveryMethods":["HOME_DELIVERY","PICKUP"],"customerTypes":["B2B","B2C"],"cityGroups":null,"customLogoURI":null}]},"Uppsala":{"Uppsala":[{"id":"01498","name":"ICA Nära Folkes livs","city":"Uppsala","street":"Rackarbergsgatan 8","zipCode":"75232","area":"Uppsala","storeFormat":"nara","marketingText":"Självklart samma pris på nätet som i vår butik! 20% rabatt på första köpet.","latitude":59.856,"longitude":17.618,"deliveryMethods":["HOME_DELIVERY","PICKUP"],"customerTypes":["B2B","B2C"],"cityGroups":null,"customLogoURI":null},{"id":"14936","name":"ICA Nära Stabby","city":"Uppsala","street":"Hällbygatan 27","zipCode":"75219","area":"Uppsala","storeFormat":"nara","marketingText":"Välj bland över 8000 varor. Fri hemleverans över 300kr och 20% rabatt på första köpet.","latitude":59.867,"longitude":17.6089,"deliveryMethods":["HOME_DELIVERY","PICKUP"],"customerTypes":["B2B","B2C"],"cityGroups":null,"customLogoURI":null},{"id":"09699","name":"Maxi ICA Stormarknad Stenhagen","city":"Uppsala","street":"Fyrisparksvägen 1","zipCode":"75267","area":"Uppsala","storeFormat":"maxi","marketingText":"Hemleverans fem dagar i veckan!","latitude":59.848548,"longitude":17.560139,"deliveryMethods":["HOME_DELIVERY","PICKUP"],"customerTypes":["B2B","B2C"],"cityGroups":null,"customLogoURI":null}]}},"V":{"Vaggeryd":{"Vaggeryd":[{"id":"02349","name":"ICA Supermarket Vaggeryd","city":"Vaggeryd","street":"Järnvägsgatan 2","zipCode":"56730","area":"Vaggeryd","storeFormat":"supermarket","marketingText":"Kommunens största matbutik - online sedan 2010. Öppet dygnet runt!","latitude":57.498878,"longitude":14.148818,"deliveryMethods":["HOME_DELIVERY","PICKUP"],"customerTypes":["B2B","B2C"],"cityGroups":null,"customLogoURI":null}]},"Vallentuna":{"Vallentuna":[{"id":"01143","name":"ICA Kvantum Vallentuna","city":"Vallentuna","street":"Torggatan 17","zipCode":"18631","area":"Vallentuna","storeFormat":"kvantum","marketingText":"Välkommen till oss - här finns något för veckans alla dagar!","latitude":59.535212,"longitude":18.078521,"deliveryMethods":["HOME_DELIVERY","PICKUP"],"customerTypes":["B2B","B2C"],"cityGroups":["Storstockholm"],"customLogoURI":null}]},"Varberg":{"Varberg":[{"id":"09259","name":"ICA Kvantum Hajen Lågpris","city":"Varberg","street":"Monarkvägen 2","zipCode":"43240","area":"Varberg","storeFormat":"kvantum","marketingText":"Välkommen till Varbergs billigaste matbutik på nätet!","latitude":57.116816,"longitude":12.257597,"deliveryMethods":["HOME_DELIVERY","PICKUP"],"customerTypes":["B2B","B2C"],"cityGroups":null,"customLogoURI":"local-image://hajen"}]},"Vetlanda":{"Vetlanda":[{"id":"08908","name":"Maxi ICA Stormarknad Vetlanda","city":"Vetlanda","street":"Nygatan 3","zipCode":"57433","area":"Vetlanda","storeFormat":"maxi","marketingText":"Hemleverans och hämtning i butik – fem dagar i veckan!","latitude":57.42631,"longitude":15.09417,"deliveryMethods":["HOME_DELIVERY","PICKUP"],"customerTypes":["B2B","B2C"],"cityGroups":null,"customLogoURI":null}]},"Vikbolandet":{"Vikbolandet":[{"id":"02180","name":"ICA Supermarket Östra Husby","city":"Vikbolandet","street":"Bygdevägen 7","zipCode":"61024","area":"Vikbolandet","storeFormat":"supermarket","marketingText":"Handla från ett brett sortiment med fokus på lokala producenter.","latitude":58.576544,"longitude":16.567941,"deliveryMethods":["PICKUP"],"customerTypes":["B2B","B2C"],"cityGroups":null,"customLogoURI":null}]},"Visby":{"Visby":[{"id":"01554","name":"ICA Supermarket Atterdags","city":"Visby","street":"Söderväg 6","zipCode":"62158","area":"VISBY","storeFormat":"supermarket","marketingText":"Ring när du är på väg, så kommer vi ut med dina varor på baksidan av butiken!","latitude":57.633322,"longitude":18.289755,"deliveryMethods":["PICKUP"],"customerTypes":["B2B","B2C"],"cityGroups":null,"customLogoURI":null},{"id":"12690","name":"Maxi ICA Stormarknad Visby","city":"Visby","street":"Follingboväg 70","zipCode":"62143","area":"VISBY","storeFormat":"maxi","marketingText":"Handla när det passar dig - Vi har ett stort urval av färska och fräscha varor.","latitude":57.623837,"longitude":18.322008,"deliveryMethods":["HOME_DELIVERY","PICKUP"],"customerTypes":["B2B","B2C"],"cityGroups":null,"customLogoURI":null}]},"Vänersborg":{"Vänersborg":[{"id":"01819","name":"ICA Kvantum Vänersborg","city":"Vänersborg","street":"Brogatan 4","zipCode":"46238","area":"VÄNERSBORG","storeFormat":"kvantum","marketingText":"Spara tid genom att handla hos oss på nätet. Beställ i lugn och ro när som helst på dygnet.","latitude":58.381079,"longitude":12.317162,"deliveryMethods":["HOME_DELIVERY","PICKUP"],"customerTypes":["B2B","B2C"],"cityGroups":null,"customLogoURI":null}]},"Vännäs":{"Vännäs":[{"id":"02986","name":"ICA Supermarket Vännäs","city":"Vännäs","street":"Östra Järnvägsgatan 20","zipCode":"91121","area":"Vännäs","storeFormat":"supermarket","marketingText":"Hämta smidigt dina färdigpackade kassar i vår drive-in! Slipp stressen.","latitude":63.908,"longitude":19.752,"deliveryMethods":["PICKUP"],"customerTypes":["B2B","B2C"],"cityGroups":null,"customLogoURI":null}]},"Värnamo":{"Värnamo":[{"id":"09600","name":"ICA Kvantum Värnamo","city":"Värnamo","street":"Expovägen 2","zipCode":"33142","area":"VÄRNAMO","storeFormat":"kvantum","marketingText":"Spara tid genom att handla hos oss på nätet. Beställ i lugn och ro när som helst på dygnet.","latitude":57.175,"longitude":14.062,"deliveryMethods":["HOME_DELIVERY","PICKUP"],"customerTypes":["B2B","B2C"],"cityGroups":null,"customLogoURI":null}]},"Västervik":{"Västervik":[{"id":"13748","name":"Maxi ICA Stormarknad Västervik","city":"Västervik","street":"Ljunghedsvägen 2","zipCode":"59323","area":"VÄSTERVIK","storeFormat":"maxi","marketingText":"Vi handplockar dina varor med omsorg - Välj att hämta i butik eller hemleverans.","latitude":57.767836,"longitude":16.5963,"deliveryMethods":["HOME_DELIVERY","PICKUP"],"customerTypes":["B2B","B2C"],"cityGroups":null,"customLogoURI":null}]},"Västerås":{"Västerås":[{"id":"00986","name":"ICA Nära Pettersberg","city":"Västerås","street":"Pettersbergscentrum ","zipCode":"72464","area":"Västerås","storeFormat":"nara","marketingText":"Hämta i butik eller få levererat fem dagar i veckan.","latitude":59.616689,"longitude":16.517589,"deliveryMethods":["HOME_DELIVERY","PICKUP"],"customerTypes":["B2B","B2C"],"cityGroups":null,"customLogoURI":null},{"id":"00988","name":"ICA Nära Vallby","city":"Västerås","street":"Vallby Centrum","zipCode":"72480","area":"Västerås","storeFormat":"nara","marketingText":"20% rabatt på första köpet. Välj bland över 7000 artiklar med mat från hela världen.","latitude":59.622384,"longitude":16.503015,"deliveryMethods":["HOME_DELIVERY","PICKUP"],"customerTypes":["B2B","B2C"],"cityGroups":null,"customLogoURI":null},{"id":"00977","name":"ICA Supermarket Ettan","city":"Västerås","street":"Långmårtensgatan 1","zipCode":"72226","area":"VÄSTERÅS","storeFormat":"supermarket","marketingText":"Stort utbud av kvalitetsvaror till samma priser som i vår fysiska butik.","latitude":59.622558,"longitude":16.558911,"deliveryMethods":["HOME_DELIVERY","PICKUP"],"customerTypes":["B2B","B2C"],"cityGroups":null,"customLogoURI":"local-image://ettan"},{"id":"10515","name":"ICA Supermarket Grytan","city":"Västerås","street":"Grytavägen 1","zipCode":"72246","area":"Västerås","storeFormat":"supermarket","marketingText":"Vi handplockar alla dina varor vilket garanterar maximal fräschör och kvalité.","latitude":59.637,"longitude":16.546,"deliveryMethods":["HOME_DELIVERY","PICKUP"],"customerTypes":["B2B","B2C"],"cityGroups":null,"customLogoURI":null},{"id":"12304","name":"Maxi ICA Stormarknad Erikslund","city":"Västerås","street":"Traversgatan 12","zipCode":"72138","area":"Västerås","storeFormat":"maxi","marketingText":"Hämta smidigt i vår drive thru eller få dina varor hemlevererade.","latitude":59.616025,"longitude":16.462013,"deliveryMethods":["HOME_DELIVERY","PICKUP"],"customerTypes":["B2B","B2C"],"cityGroups":null,"customLogoURI":null}]},"Västra frölunda":{"Västra frölunda":[{"id":"03553","name":"ICA Kvantum Frölunda","city":"Västra frölunda","street":"Radiovägen 5","zipCode":"42147","area":"Västra Frölunda","storeFormat":"kvantum","marketingText":"Brett sortiment av fräscha färskvaror och livsmedel som ger matglädje.","latitude":57.649043,"longitude":11.918639,"deliveryMethods":["HOME_DELIVERY","PICKUP"],"customerTypes":["B2B","B2C"],"cityGroups":null,"customLogoURI":null}]},"Växjö":{"Växjö":[{"id":"02272","name":"Maxi ICA Stormarknad Växjö","city":"Växjö","street":"Hejaregatan","zipCode":"35246","area":"Växjö","storeFormat":"maxi","marketingText":"Brett sortiment och grym service gör det enkelt att handla! Välj Drive-Thru eller hemkörning.","latitude":56.884,"longitude":14.766,"deliveryMethods":["HOME_DELIVERY","PICKUP"],"customerTypes":["B2B","B2C"],"cityGroups":null,"customLogoURI":null}]}},"Y":{"Ystad":{"Ystad":[{"id":"14788","name":"ICA Kvantum Ystad","city":"Ystad","street":"Almelundsvägen 4","zipCode":"27199","area":"Ystad","storeFormat":"kvantum","marketingText":"Stort sortiment och hög kvalitet - Handla när det passar dig!","latitude":55.444113,"longitude":13.807849,"deliveryMethods":["HOME_DELIVERY","PICKUP"],"customerTypes":["B2B","B2C"],"cityGroups":null,"customLogoURI":null}]}},"Ä":{"Älta":{"Älta":[{"id":"01315","name":"ICA Nära Älta","city":"Älta","street":"Oxelvägen 42","zipCode":"13830","area":"Älta","storeFormat":"nara","marketingText":"Service, kvalitet och närhet hos ICA Nära Älta!","latitude":59.256383,"longitude":18.176268,"deliveryMethods":["HOME_DELIVERY","PICKUP"],"customerTypes":["B2B","B2C"],"cityGroups":["Storstockholm"],"customLogoURI":null}]}},"Å":{"Åkersberga":{"Åkersberga":[{"id":"13704","name":"ICA Kvantum Åkersberga","city":"Åkersberga","street":"Storängstorget 4","zipCode":"18430","area":"Åkersberga","storeFormat":"kvantum","marketingText":"Alltid gratis att hämta dina varor i butik. Vi fyller på med nya färskvaror varje dag!","latitude":59.479809,"longitude":18.299043,"deliveryMethods":["HOME_DELIVERY","PICKUP"],"customerTypes":["B2B","B2C"],"cityGroups":["Storstockholm"],"customLogoURI":null},{"id":"01152","name":"ICA Nära Trevehallen","city":"Åkersberga","street":"Trevebovägen 1","zipCode":"18432","area":"Åkersberga","storeFormat":"nara","marketingText":"Låt oss packa och plocka dina varor – till samma pris som i butiken.","latitude":59.494433,"longitude":18.281102,"deliveryMethods":["HOME_DELIVERY","PICKUP"],"customerTypes":["B2B","B2C"],"cityGroups":["Storstockholm"],"customLogoURI":null}]},"Åre":{"Åre":[{"id":"00517","name":"ICA Nära Björnänge","city":"Åre","street":"Björnänge 825","area":"ÅRE","storeFormat":"nara","marketingText":"Hämta i butik eller få dina varor hemlevererade! Enkelt och bekvämt.","latitude":63.3788145,"longitude":13.1515452,"deliveryMethods":["HOME_DELIVERY","PICKUP"],"customerTypes":["B2B","B2C"],"cityGroups":null,"customLogoURI":null},{"id":"12563","name":"ICA Supermarket Åre","city":"Åre","street":"Sankt Olavs Väg 33","area":"Åre","storeFormat":"supermarket","marketingText":"Hemleverans alla dagar i veckan!","latitude":63.39899,"longitude":13.076,"deliveryMethods":["HOME_DELIVERY","PICKUP"],"customerTypes":["B2B","B2C"],"cityGroups":null,"customLogoURI":null}]},"Årsta":{"Årsta":[{"id":"12929","name":"ICA Nära Årsta","city":"Årsta","street":"Sköntorpsvägen 27","zipCode":"12038","area":"Årsta","storeFormat":"nara","marketingText":"Handla snabbt och enkelt. Hemleverans alla vardagar.","latitude":59.297911,"longitude":18.062965,"deliveryMethods":["HOME_DELIVERY","PICKUP"],"customerTypes":["B2B","B2C"],"cityGroups":["Storstockholm"],"customLogoURI":null}]},"Åtvidaberg":{"Åtvidaberg":[{"id":"02113","name":"ICA Supermarket Åtvidaberg","city":"Åtvidaberg","street":"Tilasvägen 2","zipCode":"59730","area":"Åtvidaberg","storeFormat":"supermarket","marketingText":"Handla när det passar dig. Vi erbjuder hemleverans alla dagar.","latitude":58.201156,"longitude":15.998581,"deliveryMethods":["HOME_DELIVERY","PICKUP"],"customerTypes":["B2B","B2C"],"cityGroups":null,"customLogoURI":null}]}},"Ö":{"Öckerö":{"Öckerö":[{"id":"01618","name":"ICA Nära Alexius Livs","city":"Öckerö","street":"Hårdebacksvägen 2","zipCode":"47531","area":"Öckerö","storeFormat":"nara","marketingText":"Handla i lugn och ro när du har tid. Samma priser på nätet som i butiken!","latitude":57.714161,"longitude":11.650551,"deliveryMethods":["HOME_DELIVERY","PICKUP"],"customerTypes":["B2B","B2C"],"cityGroups":null,"customLogoURI":null}]},"Ödeshög":{"Ödeshög":[{"id":"02101","name":"ICA Supermarket Ödeshög","city":"Ödeshög","street":"Stora Torget 1A","zipCode":"59931","area":"Ödeshög","storeFormat":"supermarket","marketingText":"Personlig service och brett sortiment mitt i Bynn!","latitude":58.229081,"longitude":14.652762,"deliveryMethods":["PICKUP"],"customerTypes":["B2B","B2C"],"cityGroups":null,"customLogoURI":null}]},"Örebro":{"Örebro":[{"id":"01066","name":"ICA Supermarket Parken","city":"Örebro","street":"Adolf Mörners plan 2","zipCode":"70009","area":"Örebro","storeFormat":"supermarket","marketingText":"Butik med fokus på lokala leverantörer. Varorna levereras med biogasbilar.","latitude":59.246956,"longitude":15.166566,"deliveryMethods":["HOME_DELIVERY","PICKUP"],"customerTypes":["B2B","B2C"],"cityGroups":null,"customLogoURI":null},{"id":"01093","name":"Maxi ICA Stormarknad Eurostop Örebro","city":"Örebro","street":"Boglundsgatan 2","zipCode":"70374","area":"Örebro","storeFormat":"maxi","marketingText":"Spara tid och slipp långa köer! Vi handplockar dina varor i butiken.","latitude":59.297,"longitude":15.206,"deliveryMethods":["HOME_DELIVERY","PICKUP"],"customerTypes":["B2B","B2C"],"cityGroups":null,"customLogoURI":null}]},"Örkelljunga":{"Örkelljunga":[{"id":"14842","name":"ICA Supermarket Örkelljunga","city":"Örkelljunga","street":"David Anders Gata 6","zipCode":"28637","area":"Örkelljunga","storeFormat":"supermarket","marketingText":"Fri upphämtning fem dagar i veckan på baksidan av vår butik!","latitude":56.2815637,"longitude":13.2810512,"deliveryMethods":["PICKUP"],"customerTypes":["B2B","B2C"],"cityGroups":null,"customLogoURI":null}]},"Örnsköldsvik":{"Örnsköldsvik":[{"id":"12226","name":"ICA Kvantum Örnsköldsvik","city":"Örnsköldsvik","street":"Ångermanlandsgatan 24","zipCode":"89138","area":"Örnsköldsvik","storeFormat":"kvantum","marketingText":"Vi handplockar alla dina varor här i butiken och du hämtar dina kassar i vår smidiga drive in.","latitude":63.302902,"longitude":18.721,"deliveryMethods":["HOME_DELIVERY","PICKUP"],"customerTypes":["B2B","B2C"],"cityGroups":null,"customLogoURI":null}]},"Ösmo":{"Ösmo":[{"id":"01374","name":"ICA Supermarket Ösmo","city":"Ösmo","street":"Box 71","zipCode":"14822","area":"Ösmo","storeFormat":"supermarket","marketingText":"Handla till både vardag och fest – enkelt och bekvämt!","latitude":58.983223,"longitude":17.895568,"deliveryMethods":["PICKUP"],"customerTypes":["B2C"],"cityGroups":["Storstockholm"],"customLogoURI":null}]},"Östersund":{"Östersund":[{"id":"00564","name":"ICA Nära Blå Center","city":"Östersund","street":"Tegelbruksvägen 10","zipCode":"83147","area":"Östersund","storeFormat":"nara","marketingText":"Hämta smidigt varorna i vår Drive-thru! Vi har ett stort ekologiskt sortiment.","latitude":63.17,"longitude":14.664,"deliveryMethods":["PICKUP"],"customerTypes":["B2B","B2C"],"cityGroups":null,"customLogoURI":null},{"id":"00561","name":"ICA Supermarket Odenhallen","city":"Östersund","street":"Slåttervägen 31","zipCode":"83161","area":"Östersund","storeFormat":"supermarket","marketingText":"Handla i lugn och ro. Vi lastar varorna direkt i din bil. Välkommen till din personliga butik.","latitude":63.156,"longitude":14.683,"deliveryMethods":["HOME_DELIVERY","PICKUP"],"customerTypes":["B2B","B2C"],"cityGroups":null,"customLogoURI":null},{"id":"00574","name":"ICA Supermarket Vallhalla","city":"Östersund","street":"Önevägen 145 Valla Centrum Frösön","zipCode":"83253","area":"Frösön","storeFormat":"supermarket","marketingText":"Din personliga matbutik på Frösön. Vi plockar varorna åt dig - hämta smidigt direkt i butiken.","latitude":63.169,"longitude":14.566,"deliveryMethods":["PICKUP"],"customerTypes":["B2B","B2C"],"cityGroups":null,"customLogoURI":null},{"id":"13422","name":"Maxi ICA Stormarknad Östersund","city":"Östersund","street":"Arenavägen 19","zipCode":"83132","area":"Östersund","storeFormat":"maxi","marketingText":"Matglädje även på nätet! Hämta dina varor i butiken eller få dem hemlevererade.","latitude":63.192598,"longitude":14.650601,"deliveryMethods":["HOME_DELIVERY","PICKUP"],"customerTypes":["B2B","B2C"],"cityGroups":null,"customLogoURI":null}]}}}